,sno,sna,tot,sbi,sarea,mday,lat,lng,ar,sareaen,snaen,aren,bemp,act,srcUpdateTime,updateTime,infoTime,infoDate
0,500101001,YouBike2.0_捷運科技大樓站,28,0,大安區,2023-05-27 14:10:09,25.02605,121.5436,復興南路二段235號前,Daan Dist.,YouBike2.0_MRT Technology Bldg. Sta.,No.235， Sec. 2， Fuxing S. Rd.,25,1,2023-05-27 14:11:29,2023-05-27 14:11:51,2023-05-27 14:10:09,2023-05-27
1,500101002,YouBike2.0_復興南路二段273號前,21,0,大安區,2023-05-27 14:11:14,25.02565,121.54357,復興南路二段273號西側,Daan Dist.,YouBike2.0_No.273， Sec. 2， Fuxing S. Rd.,No.273， Sec. 2， Fuxing S. Rd. (West),21,1,2023-05-27 14:11:29,2023-05-27 14:11:51,2023-05-27 14:11:14,2023-05-27
2,500101003,YouBike2.0_國北教大實小東側門,16,0,大安區,2023-05-27 14:11:03,25.02429,121.54124,和平東路二段96巷7號,Daan Dist.,YouBike2.0_NTUE Experiment Elementary School (East),No. 7， Ln. 96， Sec. 2， Heping E. Rd,15,1,2023-05-27 14:11:29,2023-05-27 14:11:51,2023-05-27 14:11:03,2023-05-27
3,500101004,YouBike2.0_和平公園東側,11,0,大安區,2023-05-27 13:57:04,25.02351,121.54282,和平東路二段118巷33號,Daan Dist.,YouBike2.0_Heping Park (East),No. 33， Ln. 118， Sec. 2， Heping E. Rd,11,1,2023-05-27 14:11:29,2023-05-27 14:11:51,2023-05-27 13:57:04,2023-05-27
4,500101005,YouBike2.0_辛亥復興路口西北側,16,0,大安區,2023-05-27 14:11:03,25.02153,121.54299,復興南路二段368號,Daan Dist.,YouBike2.0_Xinhai Fuxing Rd. Intersection (Northwest),No. 368， Sec. 2， Fuxing S. Rd.,16,1,2023-05-27 14:11:29,2023-05-27 14:11:51,2023-05-27 14:11:03,2023-05-27
6,500101007,YouBike2.0_復興南路二段340巷口,11,3,大安區,2023-05-27 14:10:20,25.02253,121.54326,復興南路二段342號,Daan Dist.,YouBike2.0_Ln. 340， Sec. 2， Fuxing S. Rd.,No. 342， Sec. 2， Fuxing S. Rd.,7,1,2023-05-27 14:11:29,2023-05-27 14:11:51,2023-05-27 14:10:20,2023-05-27
8,500101009,YouBike2.0_新生南路三段66號前,16,0,大安區,2023-05-27 14:10:09,25.01976,121.53384,新生南路三段66號東側,Daan Dist.,YouBike2.0_No. 66， Sec. 3， Xinsheng S. Rd.,No. 66， Sec. 3， Xinsheng S. Rd. (East),16,1,2023-05-27 14:11:29,2023-05-27 14:11:51,2023-05-27 14:10:09,2023-05-27
9,500101010,YouBike2.0_新生南路三段82號前,20,3,大安區,2023-05-27 14:10:20,25.01894,121.53361,新生南路三段82號,Daan Dist.,YouBike2.0_No. 82， Sec. 3， Xinsheng S. Rd.,No. 82， Sec. 3， Xinsheng S. Rd.,16,1,2023-05-27 14:11:29,2023-05-27 14:11:51,2023-05-27 14:10:20,2023-05-27
10,500101012,YouBike2.0_辛亥路一段30號前,8,0,大安區,2023-05-27 14:03:04,25.01986,121.52982,辛亥路一段30號,Daan Dist.,YouBike2.0_No. 30， Sec. 1， Xinhai Rd.,No. 30， Sec. 1， Xinhai Rd.,8,1,2023-05-27 14:11:29,2023-05-27 14:11:51,2023-05-27 14:03:04,2023-05-27
11,500101013,YouBike2.0_和平復興路口西北側,9,3,大安區,2023-05-27 14:09:14,25.02543,121.54332,復興南路二段236號,Daan Dist.,YouBike2.0_Heping Fuxing Rd. Intersection (Northwest),No. 236， Sec. 2， Fuxing S. Rd.,5,1,2023-05-27 14:11:29,2023-05-27 14:11:51,2023-05-27 14:09:14,2023-05-27
12,500101014,YouBike2.0_羅斯福路三段311號前,11,3,大安區,2023-05-27 14:03:15,25.01717,121.53202,羅斯福路三段311號,Daan Dist.,YouBike2.0_No. 311， Sec. 3， Roosevelt Rd.,No. 311， Sec. 3， Roosevelt Rd.,8,1,2023-05-27 14:11:29,2023-05-27 14:11:51,2023-05-27 14:03:15,2023-05-27
15,500101018,YouBike2.0_溫州公園,5,2,大安區,2023-05-27 14:08:14,25.01895,121.53156,羅斯福路三段283巷11號,Daan Dist.,YouBike2.0_Wenzhou Park,No. 11， Ln. 283， Sec. 3， Roosevelt Rd.,3,1,2023-05-27 14:11:29,2023-05-27 14:11:51,2023-05-27 14:08:14,2023-05-27
17,500101020,YouBike2.0_溫州停車場,5,1,大安區,2023-05-27 14:09:14,25.02093,121.5331,新生南路三段54巷/溫州街口,Daan Dist.,YouBike2.0_Wenzhou Parking Lot,Ln. 54， Sec. 3， Xinsheng S. Rd. & Wenzhou St. Intersection,4,1,2023-05-27 14:11:29,2023-05-27 14:11:51,2023-05-27 14:09:14,2023-05-27
18,500101021,YouBike2.0_銘傳國小側門,7,3,大安區,2023-05-27 14:10:20,25.01385,121.53549,羅斯福路四段21號旁天橋下,Daan Dist.,YouBike2.0_Taipei Municipal MingChuan Elementary School(Side Gate),No. 21， Sec. 4， Roosevelt Rd.,3,1,2023-05-27 14:11:29,2023-05-27 14:11:51,2023-05-27 14:10:20,2023-05-27
19,500101022,YouBike2.0_捷運公館站(2號出口),99,0,大安區,2023-05-27 14:11:14,25.01491,121.53438,捷運公館站(2號出口)外側,Daan Dist.,YouBike2.0_MRT Gongguan Sta. (Exit 2),MRT Gongguan Sta. (Exit 2),94,1,2023-05-27 14:11:29,2023-05-27 14:11:51,2023-05-27 14:11:14,2023-05-27
23,500101026,YouBike2.0_公館公園,15,0,大安區,2023-05-27 13:53:04,25.01137,121.54062,羅斯福路四段113巷基隆路四段41巷口,Daan Dist.,YouBike2.0_Gongguan Park,Ln. 113， Sec. 4， Roosevelt Rd. & Ln. 41， Sec. 4， Keelung Rd. Intersection,15,1,2023-05-27 14:11:29,2023-05-27 14:11:51,2023-05-27 13:53:04,2023-05-27
25,500101028,YouBike2.0_臺大醫學院附設癌醫中心,20,2,大安區,2023-05-27 14:08:14,25.01426,121.54382,基隆路三段155巷57號西側,Daan Dist.,YouBike2.0_NTU Cancer Center,No. 57， Ln. 155， Sec. 3， Keelung Rd.(West),18,1,2023-05-27 14:11:29,2023-05-27 14:11:51,2023-05-27 14:08:14,2023-05-27
28,500101031,YouBike2.0_臺大男七舍前,20,1,大安區,2023-05-27 14:04:18,25.01537,121.54698,長興街/長興街80巷口西側,Daan Dist.,YouBike2.0_NTU 7th Men's Dorm,Ln. 80， Changxing St. Intersection(West),19,1,2023-05-27 14:11:29,2023-05-27 14:11:51,2023-05-27 14:04:18,2023-05-27
32,500101035,YouBike2.0_臺大土木研究大樓前,24,2,大安區,2023-05-27 14:07:14,25.01787,121.5476,辛亥路三段188號,Daan Dist.,YouBike2.0_NTU Civil Engineering Research Building,No. 188， Sec. 3， Xinhai Rd.,21,1,2023-05-27 14:11:29,2023-05-27 14:11:51,2023-05-27 14:07:14,2023-05-27
34,500101037,YouBike2.0_臺大國青大樓宿舍前,20,1,大安區,2023-05-27 14:11:03,25.02076,121.54432,辛亥路三段30號西北側,Daan Dist.,YouBike2.0_NTU Guo - Ching Building,No. 30， Sec. 3， Xinhai Rd.(Northwest),19,1,2023-05-27 14:11:29,2023-05-27 14:11:51,2023-05-27 14:11:03,2023-05-27
38,500101041,YouBike2.0_辛亥新生路口東南側,41,1,大安區,2023-05-27 14:11:14,25.02218,121.53474,辛亥新生路口東南側,Daan Dist.,YouBike2.0_Xinhai Xinsheng Rd. Intersection (Southeast),Xinhai Xinsheng Rd. Intersection (Southeast),39,1,2023-05-27 14:11:29,2023-05-27 14:11:51,2023-05-27 14:11:14,2023-05-27
42,500101093,YouBike2.0_大安區健康服務中心,15,0,大安區,2023-05-27 13:07:04,25.021469,121.544069,辛亥路三段15號,Daan Dist.,YouBike2.0_Daan District Public Health Center,No. 15， Sec. 1， Xinhai Rd.,15,1,2023-05-27 14:11:29,2023-05-27 14:11:51,2023-05-27 13:07:04,2023-05-27
43,500101094,YouBike2.0_辛亥泰順街口,20,3,大安區,2023-05-27 14:10:20,25.02193,121.53165,辛亥泰順街口東南側,Daan Dist.,YouBike2.0_Xinhai Taishun St. Intersection,Xinhai Taishun St. Intersection (Southeast),15,1,2023-05-27 14:11:29,2023-05-27 14:11:51,2023-05-27 14:10:20,2023-05-27
46,500101098,YouBike2.0_臥龍公園,14,2,大安區,2023-05-27 14:04:18,25.01623,121.55037,辛亥路三段223號西側,Daan Dist.,YouBike2.0_Wolong Park,No. 223， Sec. 3， Xinhai Rd. (West),12,1,2023-05-27 14:11:29,2023-05-27 14:11:51,2023-05-27 14:04:18,2023-05-27
49,500101101,YouBike2.0_捷運六張犁站,64,3,大安區,2023-05-27 14:08:14,25.02397,121.55266,和平東路三段410號,Daan Dist.,YouBike2.0_MRT Liuzhangli Sta.,No. 410， Sec. 3， Heping E. Rd.,61,1,2023-05-27 14:11:29,2023-05-27 14:11:51,2023-05-27 14:08:14,2023-05-27
50,500101102,YouBike2.0_喬治工商,26,2,大安區,2023-05-27 13:55:23,25.02705,121.55551,基隆路二段166號,Daan Dist.,YouBike2.0_George Vocational High School of Taipei,No. 166， Sec. 2， Keelung Rd.,21,1,2023-05-27 14:11:29,2023-05-27 14:11:51,2023-05-27 13:55:23,2023-05-27
51,500101103,YouBike2.0_法治公園,15,0,大安區,2023-05-27 12:57:04,25.02694,121.55325,通化街189號西側,Daan Dist.,YouBike2.0_Fazhi Park,No. 189， Tonghua St. (West),14,1,2023-05-27 14:11:29,2023-05-27 14:11:51,2023-05-27 12:57:04,2023-05-27
52,500101104,YouBike2.0_捷運臺電大樓站(2號出口),15,0,大安區,2023-05-27 14:07:04,25.02021,121.52942,辛亥路一段/羅斯福路三段口北側(辛亥路側),Daan Dist.,YouBike2.0_MRT Taipower Building Sta. (Exit 2),Sec. 1， Xinhai Rd & Sec. 3， Roosevelt Rd (North),15,1,2023-05-27 14:11:29,2023-05-27 14:11:51,2023-05-27 14:07:04,2023-05-27
54,500101107,YouBike2.0_和平龍泉街口,34,0,大安區,2023-05-27 14:07:04,25.02638,121.52971,和平東路一段/龍泉街口西南側,Daan Dist.,YouBike2.0_Sec. 1， Heping E. Rd & Longquan St. Intersection,Sec. 1， Heping E. Rd & Longquan St. Intersection (Southwest),33,1,2023-05-27 14:11:29,2023-05-27 14:11:51,2023-05-27 14:07:04,2023-05-27
58,500101111,YouBike2.0_捷運古亭站(5號出口),14,1,大安區,2023-05-27 14:10:20,25.02715,121.52293,和平東路一段19號前,Daan Dist.,YouBike2.0_MRT Guting Sta. (Exit 5),No. 19， Sec. 1， Heping E. Rd,13,1,2023-05-27 14:11:29,2023-05-27 14:11:51,2023-05-27 14:10:20,2023-05-27
60,500101114,YouBike2.0_新生和平路口東北側,38,0,大安區,2023-05-27 14:10:09,25.02657,121.53515,新生南路二段與和平東路二段口東北側,Daan Dist.,YouBike2.0_Sec. 2， Xinsheng S. Rd & Sec. 2， Heping E. Rd Intersection,Sec. 2， Xinsheng S. Rd & Sec. 2， Heping E. Rd (Northeast),37,1,2023-05-27 14:11:29,2023-05-27 14:11:51,2023-05-27 14:10:09,2023-05-27
63,500101117,YouBike2.0_捷運東門站(3號出口),15,3,大安區,2023-05-27 14:11:14,25.03383,121.52815,信義路二段128號前,Daan Dist.,YouBike2.0_MRT Dongmen Sta. (Exit 3),No. 128， Sec. 2， Xinyi Rd.,12,1,2023-05-27 14:11:29,2023-05-27 14:11:51,2023-05-27 14:11:14,2023-05-27
67,500101122,YouBike2.0_敦化南路二段293巷口南側,14,3,大安區,2023-05-27 14:06:16,25.0237,121.54899,敦化南路二段293巷口南側,Daan Dist.,YouBike2.0_Ln. 293， Sec. 2， Dunhua S. Rd (South),Ln. 293， Sec. 2， Dunhua S. Rd. (South),11,1,2023-05-27 14:11:29,2023-05-27 14:11:51,2023-05-27 14:06:16,2023-05-27
68,500101123,YouBike2.0_敦化基隆路口,29,2,大安區,2023-05-27 13:57:14,25.02215,121.54839,敦化南路二段218號,Daan Dist.,YouBike2.0_Sec. 2， Dunhua S. Rd & Sec. 2， Keelung Rd Intersection,No. 218， Sec. 2， Dunhua S. Rd,25,1,2023-05-27 14:11:29,2023-05-27 14:11:51,2023-05-27 13:57:14,2023-05-27
69,500101124,YouBike2.0_安和路二段181巷口,17,0,大安區,2023-05-27 14:03:04,25.02721,121.54988,安和路二段185號,Daan Dist.,YouBike2.0_Ln. 181， Sec. 2， Anhe Rd,No185， Sec. 2， Anhe Rd,17,1,2023-05-27 14:11:29,2023-05-27 14:11:51,2023-05-27 14:03:04,2023-05-27
70,500101125,YouBike2.0_臨江街夜市(通化街101巷口),30,1,大安區,2023-05-27 14:06:16,25.02952,121.55406,通化街111號,Daan Dist.,YouBike2.0_Linjiang St night market (Ln. 101， Tonghua St),No. 101， Tonghua St.,28,1,2023-05-27 14:11:29,2023-05-27 14:11:51,2023-05-27 14:06:16,2023-05-27
71,500101126,YouBike2.0_臨江街夜市(基隆路),17,1,大安區,2023-05-27 14:10:20,25.02931,121.55721,基隆路二段108號,Daan Dist.,YouBike2.0_Linjiang St night market (Keelung Rd),No. 108， Sec. 2， Keelung Rd.,15,1,2023-05-27 14:11:29,2023-05-27 14:11:51,2023-05-27 14:10:20,2023-05-27
72,500101127,YouBike2.0_台北科技大學億光大樓,46,1,大安區,2023-05-27 14:10:09,25.04177,121.53833,忠孝東路三段81號,Daan Dist.,YouBike2.0_National Taipei University of Technology (Everlight Building),No. 81， Sec. 3， Zhongxiao E. Rd.,44,1,2023-05-27 14:11:29,2023-05-27 14:11:51,2023-05-27 14:10:09,2023-05-27
75,500101130,YouBike2.0_民榮公園,15,0,大安區,2023-04-20 07:22:04,25.03534,121.5354,建國南路一段304巷45號南側,Daan Dist.,YouBike2.0_Minrong Park,No. 45， Ln. 304， Sec. 1， Jianguo S. Rd. (South),15,0,2023-05-27 14:11:29,2023-05-27 14:11:51,2023-04-20 07:22:04,2023-04-20
79,500101134,YouBike2.0_捷運大安站(4號出口),13,1,大安區,2023-05-27 14:11:14,25.0332,121.5439,信義路4段6號(前),Daan Dist.,YouBike2.0_MRT Da’an Sta (Exit 4),No. 6， Sec. 4， Xinyi Rd.,10,1,2023-05-27 14:11:29,2023-05-27 14:11:51,2023-05-27 14:11:14,2023-05-27
81,500101136,YouBike2.0_信義大安路口(信維大樓),12,2,大安區,2023-05-27 14:11:14,25.03317,121.54639,信義路四段74號(前),Daan Dist.,YouBike2.0_Sec. 4， Xinyi Rd & Da’an Rd Intersection (Xinwei Building),No. 74， Sec. 4， Xinyi Rd.,9,1,2023-05-27 14:11:29,2023-05-27 14:11:51,2023-05-27 14:11:14,2023-05-27
84,500101139,YouBike2.0_信義敦化路口,46,2,大安區,2023-05-27 14:11:14,25.03333,121.54977,信義路四段155號前,Daan Dist.,YouBike2.0_Sec. 4， Xinyi Rd & Sec. 1， Dunhua S. Rd Intersection,No. 155， Sec. 4， Xinyi Rd,44,1,2023-05-27 14:11:29,2023-05-27 14:11:51,2023-05-27 14:11:14,2023-05-27
85,500101140,YouBike2.0_仁愛國中,25,0,大安區,2023-05-27 14:05:05,25.03706,121.55166,安和路一段75號(對面),Daan Dist.,YouBike2.0_Ren Ai Junior High School,No. 75， Sec. 1， Anhe Rd.,23,1,2023-05-27 14:11:29,2023-05-27 14:11:51,2023-05-27 14:05:05,2023-05-27
86,500101141,YouBike2.0_捷運信義安和站(2號出口),26,1,大安區,2023-05-27 13:55:23,25.03304,121.55171,信義路四段188號前,Daan Dist.,YouBike2.0_MRT Xinyi Anhe Sta (Exit 2),No. 188， Sec. 4， Xinyi Rd,24,1,2023-05-27 14:11:29,2023-05-27 14:11:51,2023-05-27 13:55:23,2023-05-27
87,500101142,YouBike2.0_八德市場,30,1,大安區,2023-05-27 14:01:04,25.04463,121.53665,市民大道三段170號,Daan Dist.,YouBike2.0_Bade Traditional Market,No. 170， Sec. 3， Civic Blvd.,28,1,2023-05-27 14:11:29,2023-05-27 14:11:51,2023-05-27 14:01:04,2023-05-27
88,500101143,YouBike2.0_昌隆公園,16,0,大安區,2023-05-27 13:57:04,25.04448,121.53946,市民大道三段206號西側,Daan Dist.,YouBike2.0_Changlong Park,No. 206， Sec. 3， Civic Blvd. (West),15,1,2023-05-27 14:11:29,2023-05-27 14:11:51,2023-05-27 13:57:04,2023-05-27
90,500101145,YouBike2.0_信義延吉街口,15,3,大安區,2023-05-27 14:06:16,25.03318,121.55725,信義路四段353號,Daan Dist.,YouBike2.0_Sec. 4，Xinyi Rd & Yanji St Intersection,No. 353， Sec. 4， Xinyi Rd.,12,1,2023-05-27 14:11:29,2023-05-27 14:11:51,2023-05-27 14:06:16,2023-05-27
91,500101146,YouBike2.0_光信公園(光復南路456巷),15,2,大安區,2023-05-27 14:10:20,25.03513,121.5561,延吉街249號,Daan Dist.,YouBike2.0_Guangxin Park (Ln. 456， Guangfu S. Rd),No. 249， Yanji St.,12,1,2023-05-27 14:11:29,2023-05-27 14:11:51,2023-05-27 14:10:20,2023-05-27
94,500101149,YouBike2.0_捷運忠孝新生站(6號出口),15,0,大安區,2023-05-27 13:23:04,25.04091,121.53295,新生南路一段101號,Daan Dist.,YouBike2.0_MRT Zhongxiao Xinsheng Sta. (Exit 6),No. 101， Sec. 1， Xinsheng S. Rd.,15,1,2023-05-27 14:11:29,2023-05-27 14:11:51,2023-05-27 13:23:04,2023-05-27
95,500101150,YouBike2.0_捷運忠孝新生站(4號出口),34,0,大安區,2023-05-27 14:08:04,25.04239,121.53324,忠孝新生路口北側,Daan Dist.,YouBike2.0_MRT Zhongxiao Xinsheng Sta. (Exit 4),Zhongxiao & Xinsheng S. Rd Intersection. (North),33,1,2023-05-27 14:11:29,2023-05-27 14:11:51,2023-05-27 14:08:04,2023-05-27
96,500101151,YouBike2.0_大安高工,23,0,大安區,2023-05-27 14:05:05,25.03126,121.54339,復興南路二段52號(前),Daan Dist.,YouBike2.0_Daan Vocational High School,No. 52， Sec. 2， Fuxing S. Rd.,21,1,2023-05-27 14:11:29,2023-05-27 14:11:51,2023-05-27 14:05:05,2023-05-27
97,500101152,YouBike2.0_捷運忠孝新生站(3號出口),23,1,大安區,2023-05-27 14:04:19,25.04189,121.53376,忠孝東路三段與10巷口,Daan Dist.,YouBike2.0_MRT Zhongxiao Xinsheng Sta. (Exit 3),Sec. 3， Zhongxiao E. Rd & Ln. 10， Sec. 3， Zhongxiao E. Rd Intersection,22,1,2023-05-27 14:11:29,2023-05-27 14:11:51,2023-05-27 14:04:19,2023-05-27
99,500101154,YouBike2.0_敦化市民路口,23,0,大安區,2023-05-27 14:09:04,25.04405,121.5486,敦化南路1段158號(前),Daan Dist.,YouBike2.0_Dunhua S. Rd. & Civic Blvd. Intersection,No. 158， Sec. 1， Dunhua S. Rd.,20,1,2023-05-27 14:11:29,2023-05-27 14:11:51,2023-05-27 14:09:04,2023-05-27
100,500101155,YouBike2.0_捷運大安森林公園站(5號出口),15,1,大安區,2023-05-27 14:08:14,25.03336,121.5364,捷運大安森林公園站(5號出口)東側,Daan Dist.,YouBike2.0_MRT Daan Park Sta. (Exit 5),MRT Daan Park Sta. (Exit 5) (East),14,1,2023-05-27 14:11:29,2023-05-27 14:11:51,2023-05-27 14:08:14,2023-05-27
102,500101157,YouBike2.0_東豐公園,19,0,大安區,2023-05-27 13:58:04,25.03569,121.5451,東豐街24號(旁公園路側),Daan Dist.,YouBike2.0_Dongfeng Park,No. 24， Dongfeng St.,18,1,2023-05-27 14:11:29,2023-05-27 14:11:51,2023-05-27 13:58:04,2023-05-27
108,500101165,YouBike2.0_樂利路21巷口,17,2,大安區,2023-05-27 14:01:43,25.0277,121.55132,樂利路25號,Daan Dist.,YouBike2.0_Ln. 21， Leli Rd. Intersection,No. 25， Leli Rd.,15,1,2023-05-27 14:11:29,2023-05-27 14:11:51,2023-05-27 14:01:43,2023-05-27
109,500101166,YouBike2.0_捷運科技大樓站(台北教育大學),46,3,大安區,2023-05-27 14:09:14,25.02469,121.54459,和平東路二段134號前,Daan Dist.,YouBike2.0_MRT Technology Building Station,No. 134， Sec. 2， Heping E. Rd.,43,1,2023-05-27 14:11:29,2023-05-27 14:11:51,2023-05-27 14:09:14,2023-05-27
111,500101168,YouBike2.0_仁愛醫院,30,0,大安區,2023-05-27 14:09:04,25.03756,121.54587,仁愛路四段/大安路一段口(西南側),Daan Dist.,YouBike2.0_Taipei City Hospital Renai Branch,Sec. 4， Ren'ai Rd. & Sec. 1， Da'an Rd. Intersection (Southwest),30,1,2023-05-27 14:11:29,2023-05-27 14:11:51,2023-05-27 14:09:04,2023-05-27
115,500101172,YouBike2.0_捷運信義安和站(1號出口),33,1,大安區,2023-05-27 14:07:14,25.03331,121.55265,信義路四段225號前,Daan Dist.,YouBike2.0_MRT Xinyi Anhe Sta.(Exit.1),No. 225， Sec. 4， Sinyi Rd.,31,1,2023-05-27 14:11:29,2023-05-27 14:11:51,2023-05-27 14:07:14,2023-05-27
116,500101173,YouBike2.0_敦化南路二段103巷口,24,2,大安區,2023-05-27 14:08:14,25.0287,121.54904,敦化南路二段99號前,Daan Dist.,YouBike2.0_Ln. 103，Sec. 2，Dunhua S. Rd.,No. 99， Sec. 2， Dunhua S. Rd.,22,1,2023-05-27 14:11:29,2023-05-27 14:11:51,2023-05-27 14:08:14,2023-05-27
117,500101174,YouBike2.0_復興南路二段128巷口,28,2,大安區,2023-05-27 14:08:04,25.02861,121.54336,復興南路二段142之1號前,Daan Dist.,YouBike2.0_Ln. 128， Sec. 2， Fuxing S. Rd.,No. 142-1， Sec. 2， Fusing S. Rd.,26,1,2023-05-27 14:11:29,2023-05-27 14:11:51,2023-05-27 14:08:04,2023-05-27
119,500101176,YouBike2.0_芳蘭山莊,16,2,大安區,2023-05-27 13:42:14,25.01223,121.54788,基隆路三段155巷148號,Daan Dist.,YouBike2.0_Fanglan,No. 148， Ln. 155， Sec. 3， Keelung Rd.,14,1,2023-05-27 14:11:29,2023-05-27 14:11:51,2023-05-27 13:42:14,2023-05-27
124,500101182,YouBike2.0_臺北科技大學(電機工程系),16,3,大安區,2023-05-27 14:05:16,25.04196,121.53653,忠孝東路三段100號對側,Daan Dist.,YouBike2.0_NTUT(EE),No. 100， Sec. 3， Zhongxiao E. Rd. (Opposite),13,1,2023-05-27 14:11:29,2023-05-27 14:11:51,2023-05-27 14:05:16,2023-05-27
126,500101184,YouBike2.0_新生南路三段94巷口,15,3,大安區,2023-05-27 14:11:14,25.01744,121.53334,新生南路三段94號前,Daan Dist.,YouBike2.0_Ln. 94， Sec. 3， Xinsheng S. Rd. Intersection,No. 94， Sec. 3， Xinsheng S. Rd.,11,1,2023-05-27 14:11:29,2023-05-27 14:11:51,2023-05-27 14:11:14,2023-05-27
127,500101185,YouBike2.0_辛亥新生路口西北側,12,1,大安區,2023-05-27 14:10:20,25.02267,121.5341,辛亥路一段/新生南路三段(西北側),Daan Dist.,YouBike2.0_Xinhai Rd. & Xinsheng S. Rd. Intersection,Sec. 1， Xinhai Rd. & Sec. 3， Xinsheng S. Rd. Intersection (Northwest),10,1,2023-05-27 14:11:29,2023-05-27 14:11:51,2023-05-27 14:10:20,2023-05-27
128,500101186,YouBike2.0_捷運大安站(6號出口),19,0,大安區,2023-05-27 14:11:14,25.03479,121.54376,復興南路一段303號前,Daan Dist.,YouBike2.0_MRT Da’an Sta. (Exit 6),No. 303， Sec. 1， Fuxing S. Rd.,19,1,2023-05-27 14:11:29,2023-05-27 14:11:51,2023-05-27 14:11:14,2023-05-27
129,500101187,YouBike2.0_臥龍街195巷口,14,0,大安區,2023-05-27 14:07:04,25.01783,121.55224,臥龍街/臥龍街195巷(南側),Daan Dist.,YouBike2.0_Ln. 195， Wolong St.,Wolong St. / Ln. 195， Wolong St. Intersection (South),13,1,2023-05-27 14:11:29,2023-05-27 14:11:51,2023-05-27 14:07:04,2023-05-27
130,500101188,YouBike2.0_辛亥路三段157巷口,19,0,大安區,2023-05-27 13:46:04,25.01727,121.54904,辛亥路三段與辛亥路三段157巷口西北側,Daan Dist.,YouBike2.0_Ln. 157， Sec. 3， Xinhai Rd.,Sec. 3， Xinhai Rd. & Ln. 157， Sec. 3， Xinhai Rd. Intersection (Northwest),19,1,2023-05-27 14:11:29,2023-05-27 14:11:51,2023-05-27 13:46:04,2023-05-27
131,500101189,YouBike2.0_臥龍基隆路口,16,0,大安區,2023-05-27 13:42:04,25.02039,121.54853,臥龍街與基隆路二段口東北側,Daan Dist.,YouBike2.0_Wolong St. & Xinyi Rd. Intersection,Wolong St. & Sec. 2， Xinyi Rd. Intersection (Northeast),16,1,2023-05-27 14:11:29,2023-05-27 14:11:51,2023-05-27 13:42:04,2023-05-27
132,500101190,YouBike2.0_敦親公園,20,1,大安區,2023-05-27 14:07:14,25.02347,121.54108,和平東路二段96巷8之1號(前方),Daan Dist.,YouBike2.0_Dunchin Park,No. 8-1， Ln. 96， Sec. 2， Heping E. Rd.,19,1,2023-05-27 14:11:29,2023-05-27 14:11:51,2023-05-27 14:07:14,2023-05-27
135,500101193,YouBike2.0_基隆長興路口,43,2,大安區,2023-05-27 13:51:15,25.01705,121.54435,基隆路/長興街(東南側),Daan Dist.,YouBike2.0_Keelung Rd. & Changxing St. Intersection,Keelung Rd. & Changxing St. Intersection (Southeast),41,1,2023-05-27 14:11:29,2023-05-27 14:11:51,2023-05-27 13:51:15,2023-05-27
136,500101194,YouBike2.0_仁愛路四段122巷口,16,3,大安區,2023-05-27 14:11:14,25.03762,121.55009,仁愛路四段118號前,Daan Dist.,YouBike2.0_Ln. 122， Sec. 4， Ren'ai Rd.,No. 188， Sec. 4， Ren'ai Rd.,13,1,2023-05-27 14:11:29,2023-05-27 14:11:51,2023-05-27 14:11:14,2023-05-27
138,500101197,YouBike2.0_忠孝東路四段49巷口,15,0,大安區,2023-05-27 14:10:20,25.04172,121.54541,忠孝東路四段55號前,Daan Dist.,YouBike2.0_Ln. 49， Sec. 4， Zhongxiao E. Rd.,No. 55， Sec. 4， Zhongxiao E. Rd.,14,1,2023-05-27 14:11:29,2023-05-27 14:11:51,2023-05-27 14:10:20,2023-05-27
140,500101199,YouBike2.0_和平新生路口西南側,13,3,大安區,2023-05-27 14:11:14,25.02598,121.53454,新生南路三段2號前,Daan Dist.,YouBike2.0_Heping Rd. & Xinsheng S. Rd. Intersection (Southwest),No. 2， Sec. 3， Xinsheng S. Rd.,10,1,2023-05-27 14:11:29,2023-05-27 14:11:51,2023-05-27 14:11:14,2023-05-27
142,500101201,YouBike2.0_信義路三段134巷口,19,1,大安區,2023-05-27 14:10:09,25.03333,121.53968,信義路三段/信義路三段134巷口,Daan Dist.,YouBike2.0_Ln. 134， Sec. 3， Xinyi Rd.,Sec. 3， Xinyi Rd. & Ln. 134， Sec. 3， Xinyi Rd. Intersection,18,1,2023-05-27 14:11:29,2023-05-27 14:11:51,2023-05-27 14:10:09,2023-05-27
143,500101202,YouBike2.0_仁愛敦南圓環(東南側),16,3,大安區,2023-05-27 14:08:15,25.03715,121.54936,仁愛路四段110號前,Daan Dist.,YouBike2.0_Renai Dunnan Traffic Cir (Southeast),No. 110， Sec. 4， Ren'ai Rd.,9,1,2023-05-27 14:11:29,2023-05-27 14:11:51,2023-05-27 14:08:15,2023-05-27
144,500101203,YouBike2.0_臺北遠企購物中心,33,3,大安區,2023-05-27 14:05:16,25.02709,121.54902,敦化南路二段201號前,Daan Dist.,YouBike2.0_Chenggong Public House,No. 201， Sec. 2， Dunhua S. Rd.,29,1,2023-05-27 14:11:29,2023-05-27 14:11:51,2023-05-27 14:05:16,2023-05-27
146,500101205,YouBike2.0_四維路170巷口,22,2,大安區,2023-05-27 14:06:16,25.02821,121.54864,敦化南路二段92號對側中央分隔島,Daan Dist.,YouBike2.0_Ln. 170， Siwei Rd.,No. 92， Sec. 2， Dunhua S. Rd. (Opposite),20,1,2023-05-27 14:11:29,2023-05-27 14:11:51,2023-05-27 14:06:16,2023-05-27
148,500101207,YouBike2.0_捷運臺電大樓站(2號出口)_1,31,0,大安區,2023-05-27 14:05:05,25.02055,121.52855,羅斯福路三段201號旁,Daan Dist.,YouBike2.0_MRT Taipower Building Sta. (Exit 2)_1,No. 201， Sec. 3， Roosevelt Rd.,30,1,2023-05-27 14:11:29,2023-05-27 14:11:51,2023-05-27 14:05:05,2023-05-27
152,500101211,YouBike2.0_原臺北刑務所官舍,23,2,大安區,2023-05-27 14:10:20,25.03054,121.52466,金華街78號對側,Daan Dist.,YouBike2.0_Former Taipei Prison Office,No. 78， Jinhua St. (Opposite),21,1,2023-05-27 14:11:29,2023-05-27 14:11:51,2023-05-27 14:10:20,2023-05-27
157,500101216,YouBike2.0_和平東路二段18巷口,24,3,大安區,2023-05-27 14:07:14,25.02268,121.53608,辛亥路二段43號前,Daan Dist.,YouBike2.0_Ln. 18， Sec. 2， Heping E. Rd.,No. 43， Sec. 2， Xinhai Rd.,20,1,2023-05-27 14:11:29,2023-05-27 14:11:51,2023-05-27 14:07:14,2023-05-27
158,500101217,YouBike2.0_捷運大安站(5號出口),19,0,大安區,2023-05-27 14:10:20,25.03303,121.54372,復興南路二段/信義路四段(東南側),Daan Dist.,YouBike2.0_MRT Da’an Sta. (Exit 5),Sec. 2， Fuxing S. Rd. & Sec. 4， Xinyi Rd. Intersection (Southeast),16,1,2023-05-27 14:11:29,2023-05-27 14:11:51,2023-05-27 14:10:20,2023-05-27
159,500101218,YouBike2.0_臨江公園,13,0,大安區,2023-05-27 13:52:04,25.02832,121.55592,通化街143巷33號對側,Daan Dist.,YouBike2.0_Linjiang Park,No. 33， Ln. 143， Tonghua St. (Opposite),12,1,2023-05-27 14:11:29,2023-05-27 14:11:51,2023-05-27 13:52:04,2023-05-27
164,500101224,YouBike2.0_羅斯福浦城街口,15,3,大安區,2023-05-27 13:55:23,25.02208,121.52678,羅斯福路三段117號前,Daan Dist.,YouBike2.0_Roosevelt Rd. & Pucheng St. Intersection,No. 117， Sec. 3， Roosevelt Rd.,12,1,2023-05-27 14:11:29,2023-05-27 14:11:51,2023-05-27 13:55:23,2023-05-27
169,500103005,YouBike2.0_重慶酒泉街口,30,1,大同區,2023-05-27 14:08:04,25.07158,121.51368,重慶北路三段260號前,Datong Dist,YouBike2.0_Chongqing Rd. & Jiuquan St. Intersection,No. 260， Sec. 3， Chongqing N. Rd.,29,1,2023-05-27 14:11:29,2023-05-27 14:11:51,2023-05-27 14:08:04,2023-05-27
177,500103013,YouBike2.0_台北數位產業園區,24,2,大同區,2023-05-27 14:03:15,25.07447,121.52003,承德路三段287號前方,Datong Dist,YouBike2.0_DigiBlock Taipei,No. 287， Sec. 3， Chengde Rd.,22,1,2023-05-27 14:11:29,2023-05-27 14:11:51,2023-05-27 14:03:15,2023-05-27
181,500103022,YouBike2.0_大龍老人住宅,14,3,大同區,2023-05-27 13:55:23,25.06853,121.51729,民族西路82號前方,Datong Dist,YouBike2.0_Dalong Old People Housing,No. 82， Minzu W. Rd.,11,1,2023-05-27 14:11:29,2023-05-27 14:11:51,2023-05-27 13:55:23,2023-05-27
183,500103024,YouBike2.0_捷運大橋頭站(2號出口),57,3,大同區,2023-05-27 13:57:14,25.06314,121.51308,捷運大橋頭站(2號出口)西側,Datong Dist,YouBike2.0_MRT Daqiaotou Sta. (Exit 2),MRT Daqiaotou Sta. (Exit 2) (West),54,1,2023-05-27 14:11:29,2023-05-27 14:11:51,2023-05-27 13:57:14,2023-05-27
184,500103025,YouBike2.0_捷運大橋頭站(1A出口),18,1,大同區,2023-05-27 14:01:04,25.06325,121.51162,民權西路237號旁,Datong Dist,YouBike2.0_MRT Daqiaotou Sta. (Exit 1A),No. 237， Minquan W Rd.,15,1,2023-05-27 14:11:29,2023-05-27 14:11:51,2023-05-27 14:01:04,2023-05-27
185,500103026,YouBike2.0_捷運民權西路站(2號出口),25,1,大同區,2023-05-27 14:09:14,25.06174,121.51969,捷運民權西路站(2號出口)西側,Datong Dist,YouBike2.0_MRT Minquan W. Rd. Sta. (Exit 2),MRT Minquan W. Rd. Sta. (West),24,1,2023-05-27 14:11:29,2023-05-27 14:11:51,2023-05-27 14:09:14,2023-05-27
188,500103029,YouBike2.0_朝陽公園,10,0,大同區,2023-05-27 13:59:04,25.05592,121.51367,重慶北路二段62-1號旁,Datong Dist,YouBike2.0_Zhaoyang Park,No. 62-1， Sec. 2， Chongqing N. Rd.,10,1,2023-05-27 14:11:29,2023-05-27 14:11:51,2023-05-27 13:59:04,2023-05-27
190,500103031,YouBike2.0_大龍公園,18,2,大同區,2023-05-27 14:03:15,25.07049,121.51596,大龍街217號對側,Datong Dist,YouBike2.0_Dalong Park,No. 217， Dalong St. (Opposite),16,1,2023-05-27 14:11:29,2023-05-27 14:11:51,2023-05-27 14:03:15,2023-05-27
192,500103033,YouBike2.0_圓山線形公園,14,3,大同區,2023-05-27 14:09:14,25.06867,121.51993,玉門街/民族西路(西北側),Datong Dist,YouBike2.0_Linear Park - Yuanshan,Minzu Rd. & Minzu W. Rd. Intersection (Northwest),11,1,2023-05-27 14:11:29,2023-05-27 14:11:51,2023-05-27 14:09:14,2023-05-27
194,500103035,YouBike2.0_重慶民族路口,20,2,大同區,2023-05-27 14:11:14,25.06853,121.51359,重慶北路三段162號前,Datong Dist,YouBike2.0_Chongcing Rd. & Minzu Rd. Intersection,No. 162， Sec. 3， Chongcing N. Rd.,17,1,2023-05-27 14:11:29,2023-05-27 14:11:51,2023-05-27 14:11:14,2023-05-27
198,500103039,YouBike2.0_聯合醫院中興院區,27,0,大同區,2023-05-27 14:11:04,25.05205,121.50818,長安西路299號(對面),Datong Dist,YouBike2.0_Taipei City Hospital Zhongxing Branch,No. 299， Chang'an W. Rd. (Opposite),27,1,2023-05-27 14:11:29,2023-05-27 14:11:51,2023-05-27 14:11:04,2023-05-27
201,500103042,YouBike2.0_大同運動中心,16,2,大同區,2023-05-27 14:07:14,25.06496,121.51608,大龍街51號(旁),Datong Dist,YouBike2.0_Taipei DaTong Sports Center,No. 51， Dalong St.,14,1,2023-05-27 14:11:29,2023-05-27 14:11:51,2023-05-27 14:07:14,2023-05-27
202,500103043,YouBike2.0_重慶保安街口(家樂福重慶店),20,2,大同區,2023-05-27 14:11:14,25.05918,121.51373,重慶北路二段171號(旁),Datong Dist,YouBike2.0_Chongqing Rd. & Bao'an St. Intersection,No. 171， Sec. 2， Chongqing N. Rd.,18,1,2023-05-27 14:11:29,2023-05-27 14:11:51,2023-05-27 14:11:14,2023-05-27
209,500103050,YouBike2.0_太原五原路口,24,0,大同區,2023-05-27 14:07:04,25.05646,121.51698,太原路 / 五原路口(東南側),Datong Dist,YouBike2.0_Taiyuan Rd. & Wuyuan Rd. Intersection,Taiyuan Rd. & Wuyuan Rd. Intersection (Southeast),24,1,2023-05-27 14:11:29,2023-05-27 14:11:51,2023-05-27 14:07:04,2023-05-27
211,500103052,YouBike2.0_捷運民權西路站(3號出口),50,0,大同區,2023-05-27 14:11:14,25.06129,121.52021,民權西路70巷37號對面,Datong Dist,YouBike2.0_MRT Minquan W. Rd. Sta. (Exit 3),No. 37， Ln. 70， Minquan W. Rd. (Opposite),50,1,2023-05-27 14:11:29,2023-05-27 14:11:51,2023-05-27 14:11:14,2023-05-27
213,500103054,YouBike2.0_重慶長安路口,15,1,大同區,2023-05-27 14:05:16,25.0515,121.51398,長安西路244號(重慶路側),Datong Dist,YouBike2.0_Chongqing Rd. & Chang'an Rd. Intersection,No. 244， Chang'an W. Rd. (Sec. 1， Chongqing N. Rd.),14,1,2023-05-27 14:11:29,2023-05-27 14:11:51,2023-05-27 14:05:16,2023-05-27
221,500103062,YouBike2.0_寧夏涼州街口,15,3,大同區,2023-05-27 14:07:14,25.06095,121.51428,寧夏路141號對側,Datong Dist,YouBike2.0_Ningxia Rd. & Liangzhou St. Intersection,No. 141， Ningxia Rd. (Opposite),12,1,2023-05-27 14:11:29,2023-05-27 14:11:51,2023-05-27 14:07:14,2023-05-27
223,500104001,YouBike2.0_劍潭抽水站,17,3,士林區,2023-05-27 13:59:15,25.08128,121.51784,通河東街325巷/通河東街口,Shilin Dist,YouBike2.0_Jiantan Pumping Station,Ln. 325， Tonghe St. Intersection,10,1,2023-05-27 14:11:29,2023-05-27 14:11:51,2023-05-27 13:59:15,2023-05-27
224,500104002,YouBike2.0_通河東街大南路口,15,3,士林區,2023-05-27 14:11:14,25.08914,121.51542,通河東街1段192號(旁),Shilin Dist,YouBike2.0_Tonghe E. St. & Danan Rd. Intersection,No. 192， Sec.1， Tonghe E. St. (Side),11,1,2023-05-27 14:11:29,2023-05-27 14:11:51,2023-05-27 14:11:14,2023-05-27
225,500104003,YouBike2.0_福港街停車場,22,3,士林區,2023-05-27 13:58:14,25.08695,121.51901,華齡街175號(旁),Shilin Dist,YouBike2.0_Fugang St. Parking Lot,No. 175， Hualing St. (Side),19,1,2023-05-27 14:11:29,2023-05-27 14:11:51,2023-05-27 13:58:14,2023-05-27
226,500104004,YouBike2.0_百齡國小,50,1,士林區,2023-05-27 14:11:14,25.08521,121.51918,前港街104號(對面),Shilin Dist,YouBike2.0_Bailing Elementary School,No. 104， Qiangang St. (Opposite),49,1,2023-05-27 14:11:29,2023-05-27 14:11:51,2023-05-27 14:11:14,2023-05-27
227,500104005,YouBike2.0_雨聲街165巷口,15,1,士林區,2023-05-27 13:38:03,25.10277,121.53357,雨聲街/雨聲街165巷(西北側),Shilin Dist,YouBike2.0_Ln. 165， Yusheng St. Intersection,Ln. 165， Yusheng St. Intersection (Northwest),14,1,2023-05-27 14:11:29,2023-05-27 14:11:51,2023-05-27 13:38:03,2023-05-27
228,500104006,YouBike2.0_天和公園,13,3,士林區,2023-05-27 14:09:14,25.12001,121.53342,天母東路69巷30號(前方路側),Shilin Dist,YouBike2.0_Tianhe Park,No.30， Ln.69， Tianmu E. Rd. (Front),7,1,2023-05-27 14:11:29,2023-05-27 14:11:51,2023-05-27 14:09:14,2023-05-27
236,500104015,YouBike2.0_明勝公園,14,1,士林區,2023-05-27 13:21:17,25.08009,121.51895,承德路4段6巷71號(對面),Shilin Dist,YouBike2.0_Mingsheng Park,No. 71， Ln. 6， Sec.4， Chengde Rd. (Opposite),11,1,2023-05-27 14:11:29,2023-05-27 14:11:51,2023-05-27 13:21:17,2023-05-27
237,500104016,YouBike2.0_劍潭海外青年活動中心,23,1,士林區,2023-05-27 14:01:16,25.07994,121.52426,中山北路4段/通河街口,Shilin Dist,YouBike2.0_Chientan Youth Activity Center,Sec. 4， Zhongshan N. Rd. & Tonghe St. Intersection,22,1,2023-05-27 14:11:29,2023-05-27 14:11:51,2023-05-27 14:01:16,2023-05-27
240,500104020,YouBike2.0_忠誠公園,14,2,士林區,2023-05-27 14:01:16,25.10399,121.52593,忠誠路一段18號(對面),Shilin Dist,YouBike2.0_Zhongcheng Park,No. 18， Sec. 1， Zhongcheng Rd.,10,1,2023-05-27 14:11:29,2023-05-27 14:11:51,2023-05-27 14:01:16,2023-05-27
244,500104024,YouBike2.0_前港公園(福德宮),18,2,士林區,2023-05-27 13:49:15,25.08671,121.52096,後港街134巷/後港街口,Shilin Dist,YouBike2.0_Qiangang Park(Fude Temple),Ln. 134， Hougang/Hougang St. Intersection,16,1,2023-05-27 14:11:29,2023-05-27 14:11:51,2023-05-27 13:49:15,2023-05-27
246,500104026,YouBike2.0_前港公園(前港街),19,2,士林區,2023-05-27 14:11:14,25.0848,121.52125,前港街48號(對面),Shilin Dist,YouBike2.0_Qiangang Park (Qiangang St),No. 48， Qiangang St. (Opposite),17,1,2023-05-27 14:11:29,2023-05-27 14:11:51,2023-05-27 14:11:14,2023-05-27
253,500104033,YouBike2.0_福林國小,14,2,士林區,2023-05-27 14:08:15,25.09896,121.53025,福志路50號(對面),Shilin Dist,YouBike2.0_Fu-Lin Elementary School,No. 50， Fuzhi Rd. (Opposite),11,1,2023-05-27 14:11:29,2023-05-27 14:11:51,2023-05-27 14:08:15,2023-05-27
259,500104039,YouBike2.0_華聲公園,27,0,士林區,2023-02-03 10:09:04,25.09619,121.5223,華聲街17號(南側路側),Shilin Dist,YouBike2.0_Huasheng Park,No. 17， Huasheng St. (South),27,0,2023-05-27 14:11:29,2023-05-27 14:11:51,2023-02-03 10:09:04,2023-02-03
262,500104042,YouBike2.0_銘傳大學,30,0,士林區,2023-05-17 23:56:05,25.08771,121.52677,中山北路五段250號(銘傳大學對側),Shilin Dist,YouBike2.0_Ming Chuan University Taipei Campus,No. 250， Sec. 5， Zhongshan N. Rd.,29,0,2023-05-27 14:11:29,2023-05-27 14:11:51,2023-05-17 23:56:05,2023-05-17
265,500104045,YouBike2.0_聯合醫院陽明院區,15,0,士林區,2023-05-27 13:11:04,25.10455,121.53195,雨聲街105號(南側),Shilin Dist,YouBike2.0_Taipei City Hospital Yangming Branch,No. 105， Yusheng St. (South),14,1,2023-05-27 14:11:29,2023-05-27 14:11:51,2023-05-27 13:11:04,2023-05-27
270,500104050,YouBike2.0_梅林新村,15,2,士林區,2023-05-27 11:54:04,25.09755,121.54036,至善路一段/至善路一段138巷(北側),Shilin Dist,YouBike2.0_Meilin New Village,Sec. 1， Zhishan Rd & Ln. 138， Sec. 1， Zhishan Rd (North),13,1,2023-05-27 14:11:29,2023-05-27 14:11:51,2023-05-27 11:54:04,2023-05-27
272,500104052,YouBike2.0_重慶北路四段190巷口,13,2,士林區,2023-05-27 13:12:14,25.08505,121.51166,重慶北路四段198號(前),Shilin Dist,YouBike2.0_Ln. 190， Sec. 4， Chongqing N. Rd Intersection,No. 198， Sec. 4， Chongqing N. Rd,11,1,2023-05-27 14:11:29,2023-05-27 14:11:51,2023-05-27 13:12:14,2023-05-27
273,500104053,YouBike2.0_重慶北葫東街口,15,2,士林區,2023-05-27 13:41:16,25.08393,121.51169,重慶北路四段177號(前),Shilin Dist,YouBike2.0_Sec. 4， Chongqing N. Rd.& Hudong St Intersection,No. 177， Sec. 4， Chongqing N. Rd.,13,1,2023-05-27 14:11:29,2023-05-27 14:11:51,2023-05-27 13:41:16,2023-05-27
276,500104056,YouBike2.0_社正公園,15,2,士林區,2023-05-27 13:49:15,25.08824,121.51054,社中街39號(對面),Shilin Dist,YouBike2.0_Shezheng Park,No. 39， Shezhong St. (Opposite),13,1,2023-05-27 14:11:29,2023-05-27 14:11:51,2023-05-27 13:49:15,2023-05-27
280,500104060,YouBike2.0_社子公園,14,0,士林區,2023-05-27 14:09:04,25.0902,121.50622,永平街20巷37弄/永平街20巷11弄(社子公園南側),Shilin Dist,YouBike2.0_Shezi Park,Aly. 37， Ln. 20， Yongping St & Aly. 11， Ln. 20， Yongping St Intersection.,14,1,2023-05-27 14:11:29,2023-05-27 14:11:51,2023-05-27 14:09:04,2023-05-27
283,500104063,YouBike2.0_後港公園,15,1,士林區,2023-05-27 13:32:14,25.09312,121.51419,通河東街二段26號(旁公園),Shilin Dist,YouBike2.0_Hougang Park,No. 26， Sec. 2， Tonghe E. St. (Side),14,1,2023-05-27 14:11:29,2023-05-27 14:11:51,2023-05-27 13:32:14,2023-05-27
286,500104066,YouBike2.0_延平北路八段133巷口,15,3,士林區,2023-05-27 06:03:14,25.10304,121.48297,延平北路八段133巷42號(對面),Shilin Dist,YouBike2.0_Ln. 133， Sec. 8， Yanping N. Rd Intersection,No. 67， Ln. 133， Sec. 8， Yanping N. Rd Intersection. (Opposite),12,1,2023-05-27 14:11:29,2023-05-27 14:11:51,2023-05-27 06:03:14,2023-05-27
289,500104069,YouBike2.0_福安國中,11,3,士林區,2023-05-27 12:35:15,25.10261,121.48819,延平北路七段250號(前),Shilin Dist,YouBike2.0_Fu'an Junior High School,No. 250， Sec. 7， Yanping N. Rd.,8,1,2023-05-27 14:11:29,2023-05-27 14:11:51,2023-05-27 12:35:15,2023-05-27
291,500104071,YouBike2.0_聖山綠地,15,0,士林區,2023-05-27 13:59:04,25.10696,121.53234,忠義街94號(旁),Shilin Dist,YouBike2.0_Shengshan Greens,No. 94， Zhongyi St.,15,1,2023-05-27 14:11:29,2023-05-27 14:11:51,2023-05-27 13:59:04,2023-05-27
294,500104074,YouBike2.0_蘭雅國小,27,1,士林區,2023-05-27 14:04:19,25.10775,121.52312,礦溪街與中山北路六段195巷口,Shilin Dist,YouBike2.0_Lanya Elementary School,Huangsi St. & Ln. 195， Sec. 6， Jhongshan N. Rd. Intersection,25,1,2023-05-27 14:11:29,2023-05-27 14:11:51,2023-05-27 14:04:19,2023-05-27
297,500104077,YouBike2.0_至善臨溪路口,22,2,士林區,2023-05-27 13:53:15,25.09709,121.54229,至善路一段/臨溪路(西南側),Shilin Dist,YouBike2.0_Jhihshan Rd. & Linsi Rd. Intersection,Sec. 1， Jhihshan Rd. & Linsi Rd. Intersection (Southwest),20,1,2023-05-27 14:11:29,2023-05-27 14:11:51,2023-05-27 13:53:15,2023-05-27
302,500104082,YouBike2.0_通河街76巷/承德路四段10巷口,14,2,士林區,2023-05-27 14:03:15,25.08019,121.5202,承德路四段10巷37號(旁),Shilin Dist,YouBike2.0_Ln. 76， Tonghe St. & Ln. 10， Sec. 4， Chengde Rd. Intersection,No. 37， Ln. 10， Sec. 4， Chengde Rd.,11,1,2023-05-27 14:11:29,2023-05-27 14:11:51,2023-05-27 14:03:15,2023-05-27
303,500104083,YouBike2.0_芝山聖佑宮,15,3,士林區,2023-05-27 13:39:14,25.10455,121.53025,雨聲街90號旁,Shilin Dist,YouBike2.0_Zhishan Shengyou Temple,No. 90， Yusheng St.,10,1,2023-05-27 14:11:29,2023-05-27 14:11:51,2023-05-27 13:39:14,2023-05-27
304,500104084,YouBike2.0_至誠雨聲街口,9,3,士林區,2023-05-27 13:49:15,25.10199,121.52927,至誠路二段與雨聲街口東北側,Shilin Dist,YouBike2.0_Zhicheng Rd. & Yusheng St. Intersection,Sec. 2， Zhicheng Rd. & Yusheng St. Intersection (Northeast),5,1,2023-05-27 14:11:29,2023-05-27 14:11:51,2023-05-27 13:49:15,2023-05-27
305,500104085,YouBike2.0_捷運線型公園(後街),13,3,士林區,2023-05-27 14:04:19,25.09812,121.52449,後街15號旁,Shilin Dist,YouBike2.0_MRT Linear Park (Hou St.),No. 15， Hou St.,10,1,2023-05-27 14:11:29,2023-05-27 14:11:51,2023-05-27 14:04:19,2023-05-27
306,500104086,YouBike2.0_天母公園,12,0,士林區,2023-05-27 14:07:04,25.12408,121.53003,中山北路七段141巷30號對側,Shilin Dist,YouBike2.0_Tianmu Park,No. 30， Ln. 141， Sec. 7， Zhongshan N. Rd. (Opposite),12,1,2023-05-27 14:11:29,2023-05-27 14:11:51,2023-05-27 14:07:04,2023-05-27
307,500104087,YouBike2.0_基河文林路口,16,1,士林區,2023-05-27 14:10:20,25.08637,121.5247,基河路3-1號對側人行道,Shilin Dist,YouBike2.0_Jihe Rd. & Wenlin Rd. Intersection,No. 3-1， Jihe Rd. (Opposite),15,1,2023-05-27 14:11:29,2023-05-27 14:11:51,2023-05-27 14:10:20,2023-05-27
308,500104088,YouBike2.0_文林福華路口,19,2,士林區,2023-05-27 14:10:20,25.10094,121.52243,文林路 / 福華路口(東側),Shilin Dist,YouBike2.0_Wenlin Rd. & Fude Rd. Intersection,Wenlin Rd. & Fude Rd. Intersection (East),16,1,2023-05-27 14:11:29,2023-05-27 14:11:51,2023-05-27 14:10:20,2023-05-27
309,500104089,YouBike2.0_劍潭海外青年活動中心_1,24,3,士林區,2023-05-27 14:02:14,25.0796,121.5237,通河街 / 通河街2巷(南側),Shilin Dist,YouBike2.0_Chientan Overseas Youth Activity Center_1,Tonghe St. & Ln. 2， Tonghe St.,21,1,2023-05-27 14:11:29,2023-05-27 14:11:51,2023-05-27 14:02:14,2023-05-27
314,500104095,YouBike2.0_葫蘆國小(延平北路五段285巷),15,1,士林區,2023-05-27 11:34:15,25.08406,121.5067,環河北路三段/延平北路五段285巷,Shilin Dist,YouBike2.0_Hulu Elementary School (Ln. 285， Sec. 5， Yanping N. Rd.),Sec. 3， Huanhe N. Rd. & Ln. 285， Sec. 5， Yanping N. Rd. Intersection,14,1,2023-05-27 14:11:29,2023-05-27 14:11:51,2023-05-27 11:34:15,2023-05-27
315,500104096,YouBike2.0_社子市場,15,2,士林區,2023-05-27 14:01:16,25.0881,121.50873,延平北路六段67號旁,Shilin Dist,YouBike2.0_Shezi Market,No. 67， Sec. 6， Yanping N. Rd.,13,1,2023-05-27 14:11:29,2023-05-27 14:11:51,2023-05-27 14:01:16,2023-05-27
318,500104099,YouBike2.0_文林路101巷口,7,3,士林區,2023-05-27 13:50:20,25.08761,121.52608,文林路100號前,Shilin Dist,YouBike2.0_Ln. 101， Wenlin Rd.,No. 100， Wenlin Rd.,4,1,2023-05-27 14:11:29,2023-05-27 14:11:51,2023-05-27 13:50:20,2023-05-27
325,500104106,YouBike2.0_中山北路五段698巷口,15,3,士林區,2023-05-27 14:09:14,25.09765,121.52757,中山北路五段692號前,Shilin Dist,YouBike2.0_Ln. 698， Sec. 5， Zhongshan N. Rd.,No. 692， Sec. 5， Zhongshan N. Rd.,12,1,2023-05-27 14:11:29,2023-05-27 14:11:51,2023-05-27 14:09:14,2023-05-27
330,500104111,YouBike2.0_士商路40巷口,15,0,士林區,2023-05-27 14:10:20,25.09013,121.52054,士商路40巷2號旁,Shilin Dist,YouBike2.0_Ln. 40， Shishang Rd.,No. 2， Ln. 40， Shishang Rd.,15,1,2023-05-27 14:11:29,2023-05-27 14:11:51,2023-05-27 14:10:20,2023-05-27
333,500104114,YouBike2.0_美崙公園,13,2,士林區,2023-05-27 14:10:09,25.09677,121.51931,美崙街118號斜對面人行道,Shilin Dist,YouBike2.0_Meilun Park,No. 118， Meilun St. (Opposite),11,1,2023-05-27 14:11:29,2023-05-27 14:11:51,2023-05-27 14:10:09,2023-05-27
334,500104115,YouBike2.0_臺北市立大學(忠誠路二段207巷),17,2,士林區,2023-05-27 14:01:43,25.11642,121.53743,忠誠路二段207巷/士東路299巷口,Shilin Dist,YouBike2.0_University of Taipei (Ln. 270， Sec. 2， Zhongcheng Rd.),Ln. 270， Sec. 2， Zhongcheng Rd. & Ln. 299， Shidong Rd. Intersection,15,1,2023-05-27 14:11:29,2023-05-27 14:11:51,2023-05-27 14:01:43,2023-05-27
336,500104117,YouBike2.0_美崙公園(東北側),15,1,士林區,2023-05-27 13:28:04,25.09886,121.51835,文林路587巷115號對側,Shilin Dist,YouBike2.0_Meilun Park (Northeast),No. 115， Ln. 587， Wenlin Rd. (Opposite),14,1,2023-05-27 14:11:29,2023-05-27 14:11:51,2023-05-27 13:28:04,2023-05-27
338,500105002,YouBike2.0_捷運萬隆站(4號出口),21,1,文山區,2023-05-27 14:10:09,25.0027,121.53861,羅斯福路5段210號(前),Wenshan Dist,YouBike2.0_MRT Wanlong Sta. (Exit 4),No. 210， Sec. 5， Roosevelt Rd.,20,1,2023-05-27 14:11:29,2023-05-27 14:11:51,2023-05-27 14:10:09,2023-05-27
339,500105003,YouBike2.0_捷運萬隆站(1號出口),34,2,文山區,2023-05-27 14:02:14,25.00115,121.53916,羅斯福路五段250號(前),Wenshan Dist,YouBike2.0_MRT Wanlong Sta. (Exit 1),No. 250， Sec. 5， Roosevelt Rd.,32,1,2023-05-27 14:11:29,2023-05-27 14:11:51,2023-05-27 14:02:14,2023-05-27
347,500105011,YouBike2.0_興福國中,25,1,文山區,2023-05-27 13:57:04,25.00465,121.54916,福興路95巷/福興路63巷4弄口,Wenshan Dist,YouBike2.0_Xing Fu Junior High School,Ln. 95， Fuxing Rd & Aly. 28， Ln. 63， Fuxing Rd. (Opposite),23,1,2023-05-27 14:11:29,2023-05-27 14:11:51,2023-05-27 13:57:04,2023-05-27
349,500105013,YouBike2.0_景美運動公園,11,2,文山區,2023-05-27 13:58:15,25.00219,121.54454,景豐街79號(旁公園),Wenshan Dist,YouBike2.0_Jingmei Sports Park,No. 79， Jingfeng St. (Side),8,1,2023-05-27 14:11:29,2023-05-27 14:11:51,2023-05-27 13:58:15,2023-05-27
350,500105014,YouBike2.0_景美醫院,18,0,文山區,2023-05-27 14:08:04,24.99136,121.54008,羅斯福路六段280號(前),Wenshan Dist,YouBike2.0_Jing Mei Hospital,No. 280， Sec. 6， Roosevelt Rd.,18,1,2023-05-27 14:11:29,2023-05-27 14:11:51,2023-05-27 14:08:04,2023-05-27
355,500105019,YouBike2.0_捷運動物園站,18,0,文山區,2023-05-27 14:08:04,24.99873,121.57985,新光路二段30號(對面),Wenshan Dist,YouBike2.0_MRT Taipei Zoo Sta.,No. 30， Sec. 2， Xinguang Rd. (Opposite),17,1,2023-05-27 14:11:29,2023-05-27 14:11:51,2023-05-27 14:08:04,2023-05-27
357,500105021,YouBike2.0_捷運萬芳社區站,31,0,文山區,2023-05-27 12:14:04,24.99886,121.56769,萬芳路60號(西側廣場),Wenshan Dist,YouBike2.0_MRT Wanfang Community Sta.,No. 60， Wanfang Rd. (West),31,1,2023-05-27 14:11:29,2023-05-27 14:11:51,2023-05-27 12:14:04,2023-05-27
366,500105030,YouBike2.0_臺北市立景美女中,25,3,文山區,2023-05-27 14:06:16,24.98058,121.55624,木新路三段/一壽街(西北側),Wenshan Dist,YouBike2.0_Jingmei Girls High School,Sec. 3， Muxin Rd./Yishou St. (Northwest),21,1,2023-05-27 14:11:29,2023-05-27 14:11:51,2023-05-27 14:06:16,2023-05-27
370,500105034,YouBike2.0_老泉街籃球場,14,2,文山區,2023-05-27 13:24:14,24.97619,121.5583,老泉街26巷老泉街口(籃球場前),Wenshan Dist,YouBike2.0_Laoquan St. Basketball Court,Ln. 26， Laoquan St. Intersection,12,1,2023-05-27 14:11:29,2023-05-27 14:11:51,2023-05-27 13:24:14,2023-05-27
372,500105036,YouBike2.0_木柵公園,25,0,文山區,2023-05-27 13:52:04,24.98718,121.56059,興隆路四段50號(前),Wenshan Dist,YouBike2.0_Muzha Park,No. 50， Sec. 4， Xinglong Rd.,25,1,2023-05-27 14:11:29,2023-05-27 14:11:51,2023-05-27 13:52:04,2023-05-27
377,500105041,YouBike2.0_指南路3段2巷,13,0,文山區,2023-05-27 12:12:04,24.98537,121.57959,指南路三段4號(旁),Wenshan Dist,YouBike2.0_Ln. 2， Sec. 3， Zhinan Rd.,No. 4， Sec. 3， Zhinan Rd.,13,1,2023-05-27 14:11:29,2023-05-27 14:11:51,2023-05-27 12:12:04,2023-05-27
378,500105042,YouBike2.0_萊茵公園,14,2,文山區,2023-05-27 12:34:13,24.98642,121.56514,忠順街二段87巷25弄29號,Wenshan Dist,YouBike2.0_Laiyin Park,No. 29， Aly. 25， Ln. 87， Sec. 2， Zhongshun St.,12,1,2023-05-27 14:11:29,2023-05-27 14:11:51,2023-05-27 12:34:13,2023-05-27
380,500105044,YouBike2.0_秀明路一段185巷口,20,2,文山區,2023-05-27 13:43:14,24.99151,121.56836,秀明路一段與秀明路一段185巷口,Wenshan Dist,YouBike2.0_Ln. 185， Sec. 1， Xiuming Rd. Intersection,Sec. 1， Xiuming Rd. & Ln. 185， Sec. 1， Xiuming Rd. Intersection,18,1,2023-05-27 14:11:29,2023-05-27 14:11:51,2023-05-27 13:43:14,2023-05-27
381,500105045,YouBike2.0_秀明路一段129巷口,22,1,文山區,2023-05-27 13:42:04,24.99111,121.56703,秀明路一段129巷與秀明路一段路口,Wenshan Dist,YouBike2.0_Ln. 129， Sec. 1， Xiuming Rd. Intersection,Ln. 129， Sec. 1， Xiuming Rd. & Sec. 1， Xiuming Rd. Intersection,21,1,2023-05-27 14:11:29,2023-05-27 14:11:51,2023-05-27 13:42:04,2023-05-27
382,500105046,YouBike2.0_恆光橋(老泉街),13,1,文山區,2023-05-27 14:03:15,24.97989,121.56753,老泉街/恆光街口,Wenshan Dist,YouBike2.0_Hengguang Bridge (Laoquan St.),Laoquan St. & Hengguang St. Intersection,12,1,2023-05-27 14:11:29,2023-05-27 14:11:51,2023-05-27 14:03:15,2023-05-27
383,500105047,YouBike2.0_萬有3號公園,14,0,文山區,2023-05-27 13:52:04,24.99889,121.5433,景隆街105號(對面),Wenshan Dist,YouBike2.0_Wan You NO.3 Park,No. 105， Jinglong St. (Opposite),14,1,2023-05-27 14:11:29,2023-05-27 14:11:51,2023-05-27 13:52:04,2023-05-27
385,500105049,YouBike2.0_興得閱覽室,24,1,文山區,2023-05-27 13:51:15,24.99579,121.55498,興隆路三段304巷145號,Wenshan Dist,YouBike2.0_Xingde Reading Room,No. 145， Ln. 304， Sec. 3， Xinglong Rd.,20,1,2023-05-27 14:11:29,2023-05-27 14:11:51,2023-05-27 13:51:15,2023-05-27
387,500105051,YouBike2.0_博嘉運動公園,12,1,文山區,2023-05-27 12:50:08,25.00079,121.57534,木柵路四段159巷16號,Wenshan Dist,YouBike2.0_Bo Jia Sports Park,No. 16， Ln. 159， Sec. 4， Muzha Rd.,11,1,2023-05-27 14:11:29,2023-05-27 14:11:51,2023-05-27 12:50:08,2023-05-27
390,500105054,YouBike2.0_政大一街口,14,0,文山區,2023-05-27 12:44:04,24.98543,121.58006,政大一街19號對側,Wenshan Dist,YouBike2.0_Zhengda 1st St.,No. 19， Zhengda 1st St. (Opposite),13,1,2023-05-27 14:11:29,2023-05-27 14:11:51,2023-05-27 12:44:04,2023-05-27
393,500105057,YouBike2.0_海巡署(南側),10,2,文山區,2023-05-27 13:52:15,24.99472,121.55949,興隆路三段211號對側(公車亭後),Wenshan Dist,YouBike2.0_Coast Guard Administration (South),No. 211， Sec. 3， Xinglong Rd. (Opposite),8,1,2023-05-27 14:11:29,2023-05-27 14:11:51,2023-05-27 13:52:15,2023-05-27
394,500105058,YouBike2.0_明道國小東南側,18,2,文山區,2023-05-27 13:06:16,24.98695,121.56456,興隆路四段109巷116號對側,Wenshan Dist,YouBike2.0_Ming Dao Elementary School (Southeast),No. 116， Ln. 109， Sec. 4， Muzha Rd.,16,1,2023-05-27 14:11:29,2023-05-27 14:11:51,2023-05-27 13:06:16,2023-05-27
397,500105061,YouBike2.0_師範大學公館校區_1,25,1,文山區,2023-05-27 13:58:15,25.00753,121.53719,師大公館校區校門口(汀州路側),Wenshan Dist,YouBike2.0_National Taiwan Normal University Gongguan Campus_1,National Taiwan Normal University Gongguan Campus (Tingzhou Rd.),24,1,2023-05-27 14:11:29,2023-05-27 14:11:51,2023-05-27 13:58:15,2023-05-27
398,500105062,YouBike2.0_捷運動物園站(2號出口),39,2,文山區,2023-05-27 14:06:16,24.99766,121.57875,新光路二段28號前,Wenshan Dist,YouBike2.0_MRT Taipei Zoo Sta. (Exit 2),No. 28， Sec. 2， Xinguang Rd.,36,1,2023-05-27 14:11:29,2023-05-27 14:11:51,2023-05-27 14:06:16,2023-05-27
399,500105063,YouBike2.0_政大水岸電梯,10,2,文山區,2023-05-27 13:35:14,24.982,121.5717,政治大學水岸電梯旁,Wenshan Dist,YouBike2.0_Waterfront Elevator,NCCU College of Waterfront Elevator,8,1,2023-05-27 14:11:29,2023-05-27 14:11:51,2023-05-27 13:35:14,2023-05-27
400,500105064,YouBike2.0_敦南山林,14,1,文山區,2023-05-27 13:56:15,25.00264,121.5768,木柵路四段159巷16弄(社區出入口對側),Wenshan Dist,YouBike2.0_Dunnan Forest,Aly. 16， Ln. 159， Sec. 4， Muzha Rd.,13,1,2023-05-27 14:11:29,2023-05-27 14:11:51,2023-05-27 13:56:15,2023-05-27
401,500105065,YouBike2.0_辛亥路五段73巷口,13,1,文山區,2023-05-27 14:03:04,24.99811,121.55307,辛亥路五段75-1號前人行道,Wenshan Dist,YouBike2.0_Ln. 73， Sec. 5， Xinhai Rd.,No. 75-1， Sec. 5， Xinhai Rd.,12,1,2023-05-27 14:11:29,2023-05-27 14:11:51,2023-05-27 14:03:04,2023-05-27
402,500105066,YouBike2.0_景美污水抽水站,15,2,文山區,2023-05-27 14:10:20,25.01076,121.53637,汀州路四段10號北側人行道,Wenshan Dist,YouBike2.0_Jingmei Pumping Station,No. 10， Sec. 4， Tingzhou Rd. (North),13,1,2023-05-27 14:11:29,2023-05-27 14:11:51,2023-05-27 14:10:20,2023-05-27
403,500105067,YouBike2.0_萬和三號公園(北側),13,2,文山區,2023-05-27 14:05:16,25.00345,121.53636,溪洲街107巷(公園北側),Wenshan Dist,YouBike2.0_Wan He NO.3 Park,Ln. 107， Xizhou St.,9,1,2023-05-27 14:11:29,2023-05-27 14:11:51,2023-05-27 14:05:16,2023-05-27
404,500105068,YouBike2.0_景興國中,10,2,文山區,2023-05-27 14:11:14,24.99609,121.54284,三福街4巷與景興路46巷口,Wenshan Dist,YouBike2.0_Jing Xing Junior High School,Ln. 4， Sanfu St. & Ln. 46， Jingxing Rd. Intersection,8,1,2023-05-27 14:11:29,2023-05-27 14:11:51,2023-05-27 14:11:14,2023-05-27
405,500105069,YouBike2.0_景仁公園_1,15,3,文山區,2023-05-27 14:03:15,24.9966,121.5403,景仁街 / 羅斯福路六段142巷口(北側),Wenshan Dist,YouBike2.0_Jingren Park_1,Jingren St. & Ln. 142， Sec. 6， Roosevelt Rd. Intersection (North),11,1,2023-05-27 14:11:29,2023-05-27 14:11:51,2023-05-27 14:03:15,2023-05-27
406,500105070,YouBike2.0_師大公館校區學二舍,40,3,文山區,2023-05-27 13:50:20,25.00825,121.53419,臺灣師範大學學二舍西側人行道,Wenshan Dist,YouBike2.0_NTNU Gongguan Campus (Student Dorm 2),NTNU Gongguan Campus (Student Dorm 2),35,1,2023-05-27 14:11:29,2023-05-27 14:11:51,2023-05-27 13:50:20,2023-05-27
408,500105072,YouBike2.0_萬興國小,16,2,文山區,2023-05-27 13:52:15,24.98939,121.57682,秀明路二段114號公車亭旁,Wenshan Dist,YouBike2.0_WangXin Elementary School,No. 114， Sec. 2， Xiuming Rd.,14,1,2023-05-27 14:11:29,2023-05-27 14:11:51,2023-05-27 13:52:15,2023-05-27
409,500105073,YouBike2.0_辛亥路四段77巷口,14,2,文山區,2023-05-27 13:42:14,25.00743,121.55877,辛亥路四段77巷口,Wenshan Dist,YouBike2.0_Ln. 77， Sec. 4， Xinhai Rd.,Ln. 77， Sec. 4， Xinhai Rd.,12,1,2023-05-27 14:11:29,2023-05-27 14:11:51,2023-05-27 13:42:14,2023-05-27
410,500105074,YouBike2.0_景興路42巷口,12,2,文山區,2023-05-27 14:01:16,24.99696,121.54454,景興路42巷與景興路口西南側,Wenshan Dist,YouBike2.0_Ln. 42， Jingxing Rd.,Ln. 42， Jingxing Rd. & Jingxing Rd. Intersection (Southwest),10,1,2023-05-27 14:11:29,2023-05-27 14:11:51,2023-05-27 14:01:16,2023-05-27
412,500105076,YouBike2.0_木柵路二段109巷,15,1,文山區,2023-05-27 12:30:33,24.98944,121.56195,木柵路二段109巷14號旁,Wenshan Dist,YouBike2.0_Ln. 109， Sec. 2， Muzha Rd.,No. 14， Ln. 109， Sec. 2， Muzha Rd.,14,1,2023-05-27 14:11:29,2023-05-27 14:11:51,2023-05-27 12:30:33,2023-05-27
414,500105080,YouBike2.0_萬美萬安街口,16,0,文山區,2023-05-27 13:11:04,25.00223,121.57039,萬美街一段/萬安街口,Wenshan Dist,YouBike2.0_Wanmei St. & Wan'an St. Intersection,Sec. 1， Wanmei St. & Wan'an St. Intersection,16,1,2023-05-27 14:11:29,2023-05-27 14:11:51,2023-05-27 13:11:04,2023-05-27
416,500105082,YouBike2.0_新光秀明路口,15,0,文山區,2023-05-27 13:32:04,24.99197,121.57371,新光路一段145號前,Wenshan Dist,YouBike2.0_Xinguang Rd. & Xiuming Rd. Intersection,No. 145， Sec. 1， Xinguang Rd.,14,1,2023-05-27 14:11:29,2023-05-27 14:11:51,2023-05-27 13:32:04,2023-05-27
419,500106003,YouBike2.0_捷運公館站(1號出口),12,1,中正區,2023-05-27 14:08:15,25.014529,121.534374,羅斯福路四段68號,Zhongzheng Dist,YouBike2.0_MRT Gongguan Sta. (Exit 1),No.68， Sec. 4， Roosevelt Rd.,11,1,2023-05-27 14:11:29,2023-05-27 14:11:51,2023-05-27 14:08:15,2023-05-27
423,500106007,YouBike2.0_捷運臺電大樓站(1號出口),34,2,中正區,2023-05-27 14:05:16,25.0197,121.529,辛亥路一段/羅斯福路三段南側,Zhongzheng Dist,YouBike2.0_MRT Taipower Building Sta. (Exit 1),Sec. 1， Xinhai Rd & Sec. 3， Roosevelt Rd (South),29,1,2023-05-27 14:11:29,2023-05-27 14:11:51,2023-05-27 14:05:16,2023-05-27
424,500106008,YouBike2.0_客家文化主題公園,15,2,中正區,2023-05-27 13:44:17,25.02069,121.52456,師大路/金門街11巷口對側人行道,Zhongzheng Dist,YouBike2.0_Hakka Cultural Park,Shida Rd & Ln. 11， Jinmen St (Opposite),13,1,2023-05-27 14:11:29,2023-05-27 14:11:51,2023-05-27 13:44:17,2023-05-27
425,500106009,YouBike2.0_河堤國小,27,1,中正區,2023-05-27 14:11:04,25.02277,121.52289,汀洲路二段182巷內186號旁,Zhongzheng Dist,YouBike2.0_Taipei Municipal Heti Elementary School,No. 186， Ln. 182， Sec. 2， Tingzhou Rd,25,1,2023-05-27 14:11:29,2023-05-27 14:11:51,2023-05-27 14:11:04,2023-05-27
430,500106014,YouBike2.0_牯嶺公園,46,1,中正區,2023-05-27 14:07:14,25.02338,121.51889,廈門街113巷/牯嶺街口(西側),Zhongzheng Dist,YouBike2.0_Guling Park,Ln. 113， Xiamen St & Guling St. Intersection (West),45,1,2023-05-27 14:11:29,2023-05-27 14:11:51,2023-05-27 14:07:14,2023-05-27
432,500106016,YouBike2.0_捷運古亭站(7號出口),12,2,中正區,2023-05-27 14:03:15,25.02805,121.52155,羅斯福路二段44號前方,Zhongzheng Dist,YouBike2.0_MRT Guting Sta. (Exit 7),No. 44， Sec. 2， Roosevelt Rd.,9,1,2023-05-27 14:11:29,2023-05-27 14:11:51,2023-05-27 14:03:15,2023-05-27
434,500106018,YouBike2.0_和平重慶路口,46,2,中正區,2023-05-27 14:07:14,25.02723,121.51659,和平西路一段/福州街口東側,Zhongzheng Dist,YouBike2.0_Heping & Chongqing Rd. Intersection,Sec. 1， Heping W. Rd. & Fuzhou St. Intersection (East),41,1,2023-05-27 14:11:29,2023-05-27 14:11:51,2023-05-27 14:07:14,2023-05-27
436,500106020,YouBike2.0_羅斯福路二段6巷口,14,3,中正區,2023-05-27 13:53:15,25.02923,121.52058,羅斯福路二段/羅斯福路二段6巷口,Zhongzheng Dist,YouBike2.0_Ln.6， Sec.2， Roosevelt Rd.,Ln. 6， Sec. 2， Roosevelt Rd. Intersection,11,1,2023-05-27 14:11:29,2023-05-27 14:11:51,2023-05-27 13:53:15,2023-05-27
437,500106021,YouBike2.0_金華杭州南路口,21,0,中正區,2023-05-27 14:11:04,25.031,121.52211,金華街口/杭州南路二段西北側,Zhongzheng Dist,YouBike2.0_Jinhua & Hangzhou S. Rd. Intersection,Jinhua St. & Sec. 2， Hangzhou S. Rd. Intersection (Northwest)),21,1,2023-05-27 14:11:29,2023-05-27 14:11:51,2023-05-27 14:11:04,2023-05-27
441,500106025,YouBike2.0_螢橋國小,32,0,中正區,2023-05-27 13:57:04,25.02626,121.51402,泉州街32號對面人行道,Zhongzheng Dist,YouBike2.0_Ying-Qiao Elementary School,No. 32， Quanzhou St. (Opposite),32,1,2023-05-27 14:11:29,2023-05-27 14:11:51,2023-05-27 13:57:04,2023-05-27
444,500106028,YouBike2.0_中華路二段409巷口,15,1,中正區,2023-05-27 14:08:15,25.02598,121.50806,中華路二段403號前,Zhongzheng Dist,YouBike2.0_Ln. 409， Sec. 2， Zhonghua Rd,No. 403， Sec. 2， Zhonghua Rd.,14,1,2023-05-27 14:11:29,2023-05-27 14:11:51,2023-05-27 14:08:15,2023-05-27
446,500106030,YouBike2.0_南海和平路口西南側,19,3,中正區,2023-05-27 14:04:19,25.03024,121.50904,南海路與和平西路二段西南側,Zhongzheng Dist,YouBike2.0_Nanhai Rd & Sec. 2， Heping W. Rd (Southwest),Nanhai Rd & Sec. 2， Heping W. Rd (Southwest),16,1,2023-05-27 14:11:29,2023-05-27 14:11:51,2023-05-27 14:04:19,2023-05-27
449,500106038,YouBike2.0_南門國中,29,0,中正區,2023-05-27 13:55:11,25.03543,121.50834,廣州街8巷/廣州街口東南側,Zhongzheng Dist,YouBike2.0_Nan Men Junior High School,Ln. 8， Guangzhou St/Guangzhou St Intersection. (Southeast),27,1,2023-05-27 14:11:29,2023-05-27 14:11:51,2023-05-27 13:55:11,2023-05-27
455,500106044,YouBike2.0_濟南紹興路口,39,2,中正區,2023-05-27 14:09:14,25.04193,121.52459,濟南紹興路口東南側,Zhongzheng Dist,YouBike2.0_Jinan Rd & Shaoxing S. St Intersection,Jinan Rd & Shaoxing S. St Intersection. (Southeast),37,1,2023-05-27 14:11:29,2023-05-27 14:11:51,2023-05-27 14:09:14,2023-05-27
468,500106058,YouBike2.0_聯合醫院和平院區,32,0,中正區,2023-05-27 14:03:04,25.03516,121.50641,中華路二段33號旁,Zhongzheng Dist,YouBike2.0_Taipei City Hospital Heping Branch,No. 33， Sec. 2， Zhonghua Rd.,32,1,2023-05-27 14:11:29,2023-05-27 14:11:51,2023-05-27 14:03:04,2023-05-27
471,500106061,YouBike2.0_中華路一段21巷口,22,1,中正區,2023-05-27 14:10:20,25.04677,121.50989,中華路一段11號(斜前方),Zhongzheng Dist,YouBike2.0_Ln. 21， Sec. 1， Zhonghua Rd Intersection,No. 11， Sec. 1， Zhonghua Rd. (Front right),21,1,2023-05-27 14:11:29,2023-05-27 14:11:51,2023-05-27 14:10:20,2023-05-27
478,500106068,YouBike2.0_莒光大埔街口,32,2,中正區,2023-05-27 13:53:15,25.03132,121.50519,莒光路/大埔街口(東北側),Zhongzheng Dist,YouBike2.0_Jyuguang Rd. & Dapu St. Intersection,Jyuguang Rd. & Dapu St. Intersection (Northeast),29,1,2023-05-27 14:11:29,2023-05-27 14:11:51,2023-05-27 13:53:15,2023-05-27
482,500106072,YouBike2.0_捷運中正紀念堂站(5號出口),29,0,中正區,2023-05-27 14:10:20,25.03526,121.5168,捷運中正紀念堂站(5號出口)西側,Zhongzheng Dist,YouBike2.0_MRT C.K.S Memorial Hall Sta.(Exit.5),MRT C.K.S Memorial Hall Sta. (Exit.5) (West),28,1,2023-05-27 14:11:29,2023-05-27 14:11:51,2023-05-27 14:10:20,2023-05-27
483,500106073,YouBike2.0_北平東杭州北路口,20,2,中正區,2023-05-27 14:10:09,25.04553,121.52736,北平東路/杭州北路口(東北側),Zhongzheng Dist,YouBike2.0_Beiping E. Rd. & Hangzhou N. Rd. Intersection,Beiping E. Rd. & Hangzhou N. Rd. Intersection (Northeast),18,1,2023-05-27 14:11:29,2023-05-27 14:11:51,2023-05-27 14:10:09,2023-05-27
484,500106074,YouBike2.0_王貫英先生紀念圖書館,15,3,中正區,2023-05-27 14:01:16,25.02266,121.52362,汀州路二段265號,Zhongzheng Dist,YouBike2.0_Taipei Public Library Wang Guan-Ying Branch,No. 265， Sec. 2， Tingzhou Rd.,12,1,2023-05-27 14:11:29,2023-05-27 14:11:51,2023-05-27 14:01:16,2023-05-27
485,500106075,YouBike2.0_金山信義路口,25,0,中正區,2023-05-27 13:55:11,25.03443,121.52721,金山南路一段148號前側,Zhongzheng Dist,YouBike2.0_Jinshan Rd. & Xinyi Rd. Intersection,No. 148， Sec. 1， Jinshan S. Rd.,24,1,2023-05-27 14:11:29,2023-05-27 14:11:51,2023-05-27 13:55:11,2023-05-27
490,500106083,YouBike2.0_臺北市國父史蹟館(逸仙公園),31,2,中正區,2023-05-27 14:01:16,25.04779,121.52042,中山北路一段46號北側,Zhongzheng Dist,YouBike2.0_Dr. Sun Yat-Sen Memorial House (Sun Yat-sen Park),No. 46， Sec. 1， Zhongshan N. Rd. (North),29,1,2023-05-27 14:11:29,2023-05-27 14:11:51,2023-05-27 14:01:16,2023-05-27
492,500106085,YouBike2.0_弘道國中,18,0,中正區,2023-05-27 13:39:04,25.03828,121.51524,公園路21號西北側,Zhongzheng Dist,YouBike2.0_Hondao Junior High School,No. 21， Gongyuan Rd. (Northwest),17,1,2023-05-27 14:11:29,2023-05-27 14:11:51,2023-05-27 13:39:04,2023-05-27
494,500106087,YouBike2.0_台北市替代役中心,15,1,中正區,2023-05-27 13:50:20,25.01808,121.5275,汀州路三段8號前,Zhongzheng Dist,YouBike2.0_Substitute Military Service Center,No. 8， Sec. 3， Tingzhou Rd.,14,1,2023-05-27 14:11:29,2023-05-27 14:11:51,2023-05-27 13:50:20,2023-05-27
500,500106093,YouBike2.0_仁愛金山路口,9,1,中正區,2023-05-27 14:06:04,25.0384,121.52801,仁愛路二段31號前,Zhongzheng Dist,YouBike2.0_Ren'ai Rd. & Jinshan Rd. Intersection,No. 31， Sec. 2， Ren'ai Rd.,8,1,2023-05-27 14:11:29,2023-05-27 14:11:51,2023-05-27 14:06:04,2023-05-27
501,500106094,YouBike2.0_杭州南路一段101巷口,14,0,中正區,2023-05-27 14:03:04,25.03746,121.52799,金山南路一段72號前,Zhongzheng Dist,YouBike2.0_Ln. 101， Sec. 1， Hangzhou S. Rd.,No. 72， Sec. 1， Jinshan S. Rd.,14,1,2023-05-27 14:11:29,2023-05-27 14:11:51,2023-05-27 14:03:04,2023-05-27
502,500106095,YouBike2.0_仁愛杭州路口,15,3,中正區,2023-05-27 14:09:14,25.03846,121.52497,仁愛路一段59號旁,Zhongzheng Dist,YouBike2.0_Ren'ai Rd. & Hangzhou Rd. Intersection,No. 59， Sec. 1， Ren'ai Rd.,10,1,2023-05-27 14:11:29,2023-05-27 14:11:51,2023-05-27 14:09:14,2023-05-27
506,500106099,YouBike2.0_林森北平路口,20,1,中正區,2023-05-27 13:25:15,25.04659,121.52377,林森北路與北平東路口西北側,Zhongzheng Dist,YouBike2.0_Linsen Rd & Beiping Rd. Intersection,Linsen N. Rd & Beiping E. Rd. Intersection (Northwest),18,1,2023-05-27 14:11:29,2023-05-27 14:11:51,2023-05-27 13:25:15,2023-05-27
508,500106101,YouBike2.0_天津北平路口,15,3,中正區,2023-05-27 13:59:15,25.04692,121.52208,天津街1號對側人行道,Zhongzheng Dist,YouBike2.0_Tianjin St. & Beiping Rd. Intersection,No. 1， Tianjin St. (Opposite),12,1,2023-05-27 14:11:29,2023-05-27 14:11:51,2023-05-27 13:59:15,2023-05-27
510,500106103,YouBike2.0_捷運忠孝新生站(5號出口),13,2,中正區,2023-05-27 14:01:16,25.04113,121.53273,新生南路一段56號前方,Zhongzheng Dist,YouBike2.0_MRT Zhongxiao Xinsheng Sta.(Exit.5),No. 56， Sec. 1， Xinsheng S. Rd.,11,1,2023-05-27 14:11:29,2023-05-27 14:11:51,2023-05-27 14:01:16,2023-05-27
513,500106106,YouBike2.0_林森濟南路口(東北側),15,2,中正區,2023-05-27 14:11:14,25.0425,121.5227,林森南路/濟南路一段口(東北側),Zhongzheng Dist,YouBike2.0_Linsen Rd. & Jinan Rd. Intersection (Northeast),Linsen S. Rd. & Sec. 1， Jinan Rd. Intersection (Northeast),12,1,2023-05-27 14:11:29,2023-05-27 14:11:51,2023-05-27 14:11:14,2023-05-27
514,500106107,YouBike2.0_仁愛紹興街口(南側),17,3,中正區,2023-05-27 14:05:16,25.03837,121.52345,仁愛路一段/紹興南街口(南側),Zhongzheng Dist,YouBike2.0_Ren'ai Rd. & Shaoxing St. Intersection (South),Sec. 1， Ren'ai Rd. & Shaoxing S. St. Intersection (South),14,1,2023-05-27 14:11:29,2023-05-27 14:11:51,2023-05-27 14:05:16,2023-05-27
517,500106110,YouBike2.0_捷運善導寺站(3號出口)(忠孝東路側),17,3,中正區,2023-05-27 14:11:14,25.04467,121.52357,忠孝東路一段/林森南路口,Zhongzheng Dist,YouBike2.0_MRT Shandao Temple Sta. (Exit 3) (Zhongxiao E. Rd.),Sec. 1， Zhongxiao E. Rd. & Linsen S. Rd. Intersection,13,1,2023-05-27 14:11:29,2023-05-27 14:11:51,2023-05-27 14:11:14,2023-05-27
520,500106113,YouBike2.0_濟南路二段8巷口,15,3,中正區,2023-05-27 13:53:15,25.04127,121.52697,濟南路二段6-1號對側,Zhongzheng Dist,YouBike2.0_Ln. 8， Sec. 2， Jinan Rd.,No. 6-1， Ln. 8， Sec. 2， Jinan Rd. (Opposite),12,1,2023-05-27 14:11:29,2023-05-27 14:11:51,2023-05-27 13:53:15,2023-05-27
521,500106114,YouBike2.0_仁愛金山路口(東南側),14,0,中正區,2023-05-27 13:54:04,25.03811,121.52855,仁愛路二段48-4號前,Zhongzheng Dist,YouBike2.0_Ren'ai Rd. & Jinshan Rd. Intersection (Southeast),No. 48-4， Sec. 2， Ren'ai Rd.,14,1,2023-05-27 14:11:29,2023-05-27 14:11:51,2023-05-27 13:54:04,2023-05-27
522,500106115,YouBike2.0_臺灣文學基地,15,3,中正區,2023-05-27 13:52:15,25.04148,121.5287,齊東街53巷10號,Zhongzheng Dist,YouBike2.0_Taiwan Literature Base,No. 10， Ln. 53， Qidong St.,12,1,2023-05-27 14:11:29,2023-05-27 14:11:51,2023-05-27 13:52:15,2023-05-27
523,500106116,YouBike2.0_重慶南詔安街口,15,0,中正區,2023-05-27 14:03:04,25.02507,121.51645,重慶南路三段/詔安街,Zhongzheng Dist,YouBike2.0_Chongqing S. Rd. & Zhao'an St. Intersection,Sec. 3， Chongqing S. Rd. & Zhao'an St. Intersection,15,1,2023-05-27 14:11:29,2023-05-27 14:11:51,2023-05-27 14:03:04,2023-05-27
525,500106118,YouBike2.0_捷運中正紀念堂站(2號出口),12,0,中正區,2023-05-27 14:10:20,25.03212,121.51861,羅斯福路一段10號前,Zhongzheng Dist,YouBike2.0_MRT C.K.S Memorial Hall Sta.(Exit 2),No. 10， Sec. 1， Roosevelt Rd.,12,1,2023-05-27 14:11:29,2023-05-27 14:11:51,2023-05-27 14:10:20,2023-05-27
526,500106119,YouBike2.0_螢圃里小公園,19,0,中正區,2023-05-27 14:01:04,25.02484,121.51973,汀州路二段135號對側,Zhongzheng Dist,YouBike2.0_Yingpulixiao Park,No. 135， Sec. 2， Tingzhou Rd. (Opposite),18,1,2023-05-27 14:11:29,2023-05-27 14:11:51,2023-05-27 14:01:04,2023-05-27
527,500106120,YouBike2.0_螢橋公園,15,1,中正區,2023-05-27 14:07:04,25.02682,121.51737,和平西路一段110號旁,Zhongzheng Dist,YouBike2.0_Yingqiao Park,No. 110， Sec. 1， Heping W. Rd.,12,1,2023-05-27 14:11:29,2023-05-27 14:11:51,2023-05-27 14:07:04,2023-05-27
530,500107003,YouBike2.0_樂群二堤頂大道口,20,0,中山區,2023-05-27 14:10:09,25.0803,121.56251,堤頂大道二段382號(旁),Zhongshan Dist,YouBike2.0_Lequn 2nd & Tiding Blvd. Intersection,No. 382， Tiding Blvd.,19,1,2023-05-27 14:11:29,2023-05-27 14:11:51,2023-05-27 14:10:09,2023-05-27
531,500107004,YouBike2.0_劍潭社區,13,0,中山區,2023-05-27 09:55:11,25.08524,121.53748,通北街146巷2弄2號(對面公園),Zhongshan Dist,YouBike2.0_Jiantan Community,No. 2， Aly. 2， Ln. 146， Tongbei St. (Opposite),13,1,2023-05-27 14:11:29,2023-05-27 14:11:51,2023-05-27 09:55:11,2023-05-27
532,500107005,YouBike2.0_培英公園,30,3,中山區,2023-05-27 14:03:15,25.08258,121.54462,崇實路/大直街62巷(東南側),Zhongshan Dist,YouBike2.0_Peiying Park,Chongshi/Ln. 62， Dajhih St. Intersection,27,1,2023-05-27 14:11:29,2023-05-27 14:11:51,2023-05-27 14:03:15,2023-05-27
533,500107006,YouBike2.0_樂群二明水路口,20,2,中山區,2023-05-27 14:05:16,25.08009,121.55226,樂群二路/明水路口(東北側),Zhongshan Dist,YouBike2.0_Lequn 2nd & Mingshui Rd. Intersection,Lequn 2nd/Mingshui Rd. Intersection,18,1,2023-05-27 14:11:29,2023-05-27 14:11:51,2023-05-27 14:05:16,2023-05-27
536,500107009,YouBike2.0_樂群二敬業三路口,20,0,中山區,2023-05-27 13:40:10,25.07985,121.55609,敬業三路155號(前),Zhongshan Dist,YouBike2.0_Lequn 2nd & Jingye 3rd Rd. Intersection,No. 155， Jingye 3rd Rd.,20,1,2023-05-27 14:11:29,2023-05-27 14:11:51,2023-05-27 13:40:10,2023-05-27
537,500107010,YouBike2.0_樂群二敬業四路口,36,2,中山區,2023-05-27 14:11:04,25.07976,121.55813,樂群二路186號,Zhongshan Dist,YouBike2.0_Lequn 2nd & Jingye 4th Rd. Intersection,No. 186， Lecyun 2nd Rd.,34,1,2023-05-27 14:11:29,2023-05-27 14:11:51,2023-05-27 14:11:04,2023-05-27
538,500107011,YouBike2.0_捷運大直站(3號出口),34,2,中山區,2023-05-27 13:55:23,25.07923,121.5473,北安路536號(旁),Zhongshan Dist,YouBike2.0_Dazhi Station (Exit 3),No. 536， Bei'an Rd.,32,1,2023-05-27 14:11:29,2023-05-27 14:11:51,2023-05-27 13:55:23,2023-05-27
547,500107020,YouBike2.0_新生長春路口,20,1,中山區,2023-05-27 14:04:19,25.05639,121.52752,新生北路二段/新生北路二段68巷交叉口(新生橋下),Zhongshan Dist,YouBike2.0_Xinsheng Rd. & Changchun Rd. Intersection,Sec. 2， Xinsheng N. Rd. & Ln. 68 Intersection (Under Bridge),18,1,2023-05-27 14:11:29,2023-05-27 14:11:51,2023-05-27 14:04:19,2023-05-27
548,500107021,YouBike2.0_第二果菜批發市場,28,3,中山區,2023-05-27 14:10:20,25.06642,121.53735,民族東路410巷2弄18號(東側),Zhongshan Dist,YouBike2.0_The Second Wholesale Fruit and Vegetable Market,No. 18， Aly. 2， Ln. 410， Minzu E Rd. (East),23,1,2023-05-27 14:11:29,2023-05-27 14:11:51,2023-05-27 14:10:20,2023-05-27
549,500107022,YouBike2.0_民生建國路口,26,1,中山區,2023-05-27 14:06:04,25.05778,121.53692,民生東路三段 / 建國北路二段口,Zhongshan Dist,YouBike2.0_Minsheng Rd. & Jianguo Rd. Intersection,Sec. 3， Minsheng E Rd. & Sec. 2， Jianguo N Rd. Intersection,25,1,2023-05-27 14:11:29,2023-05-27 14:11:51,2023-05-27 14:06:04,2023-05-27
552,500107025,YouBike2.0_龍江錦州街口,16,0,中山區,2023-05-27 14:11:04,25.06045,121.54077,龍江路287號前方,Zhongshan Dist,YouBike2.0_Long Jiang Rd. & Jinzhou St. Intersection,No. 287， Long Jiang Rd.,15,1,2023-05-27 14:11:29,2023-05-27 14:11:51,2023-05-27 14:11:04,2023-05-27
556,500107029,YouBike2.0_朱崙商場,31,0,中山區,2023-05-27 14:03:04,25.04762,121.54043,龍江路15號前,Zhongshan Dist,YouBike2.0_Zhulun Market,No. 15， Long Jiang Rd.,30,1,2023-05-27 14:11:29,2023-05-27 14:11:51,2023-05-27 14:03:04,2023-05-27
557,500107030,YouBike2.0_中吉公園,15,2,中山區,2023-05-27 14:07:14,25.05604,121.53166,松江路170巷20號對側,Zhongshan Dist,YouBike2.0_Zhongji Park,No. 22， Ln. 170， Songjiang Rd， (Opposite),13,1,2023-05-27 14:11:29,2023-05-27 14:11:51,2023-05-27 14:07:14,2023-05-27
564,500107037,YouBike2.0_林森農安街口,17,0,中山區,2023-05-27 13:59:05,25.06531,121.52565,林森北路582號(前),Zhongshan Dist,YouBike2.0_Linsen Rd. & Nong'an St. Intersection,No. 582， Linsen N. Rd.,17,1,2023-05-27 14:11:29,2023-05-27 14:11:51,2023-05-27 13:59:05,2023-05-27
565,500107038,YouBike2.0_捷運中山國小站(4號出口),20,1,中山區,2023-05-27 14:10:20,25.06283,121.52697,民權東路一段/民權東路一段71巷口,Zhongshan Dist,YouBike2.0_MRT Zhongshan Elementary School Sta. (Exit 4),Sec. 1， Minquan E. Rd. & Ln. 71， Sec. 1， Minquan E. Rd. Intersection,19,1,2023-05-27 14:11:29,2023-05-27 14:11:51,2023-05-27 14:10:20,2023-05-27
566,500107039,YouBike2.0_農安雙城街口,15,2,中山區,2023-05-27 14:06:16,25.06491,121.52449,農安街12-1號前方,Zhongshan Dist,YouBike2.0_Nong'an St. & Shuangcheng St. Intersection,No. 12-1， Nong'an St.,13,1,2023-05-27 14:11:29,2023-05-27 14:11:51,2023-05-27 14:06:16,2023-05-27
567,500107040,YouBike2.0_新生德惠街口,15,1,中山區,2023-05-27 14:08:04,25.06652,121.52762,新生北路三段76號對側,Zhongshan Dist,YouBike2.0_Xinsheng Rd. & Dehui St. Intersection,No. 76， Sec. 3， Xinsheng N. Rd. (Opposite),14,1,2023-05-27 14:11:29,2023-05-27 14:11:51,2023-05-27 14:08:04,2023-05-27
568,500107041,YouBike2.0_民族林森路口,20,2,中山區,2023-05-27 14:10:20,25.06847,121.52559,民族東路17號前,Zhongshan Dist,YouBike2.0_Minzu Rd. & Linsen Rd. Intersection,No. 17， Minzu E. Rd.,16,1,2023-05-27 14:11:29,2023-05-27 14:11:51,2023-05-27 14:10:20,2023-05-27
573,500107046,YouBike2.0_仁德公園,18,0,中山區,2023-04-17 00:35:05,25.05337,121.5289,吉林路108巷與南京東路二段21巷口東南側,Zhongshan Dist,YouBike2.0_Rende Park,Ln. 108， Jilin Rd. & Ln.21 ， Sec. 2， Nanjing E. Rd. Intersection (Southeast),18,0,2023-05-27 14:11:29,2023-05-27 14:11:51,2023-04-17 00:35:05,2023-04-17
575,500107048,YouBike2.0_下埤公園,24,3,中山區,2023-05-27 14:10:20,25.06682,121.54213,民族東路512巷13弄4號,Zhongshan Dist,YouBike2.0_Xiapi Park,No. 4， Aly. 13， Ln. 512， Minzu E. Rd.,21,1,2023-05-27 14:11:29,2023-05-27 14:11:51,2023-05-27 14:10:20,2023-05-27
576,500107049,YouBike2.0_五常國中,16,2,中山區,2023-05-27 14:11:14,25.06505,121.54366,復興北路488巷2弄5號對側,Zhongshan Dist,YouBike2.0_Wuchang Junior High School,No. 5， Aly. 2， Ln. 488， Fuxing N. Rd. (Opposite),13,1,2023-05-27 14:11:29,2023-05-27 14:11:51,2023-05-27 14:11:14,2023-05-27
577,500107050,YouBike2.0_榮星花園,38,0,中山區,2023-05-27 14:10:09,25.06424,121.54037,五常街77號對側,Zhongshan Dist,YouBike2.0_Rongxing Garden,No. 77， Wuchang St. (Opposite),35,1,2023-05-27 14:11:29,2023-05-27 14:11:51,2023-05-27 14:10:09,2023-05-27
580,500107053,YouBike2.0_新喜公園,13,2,中山區,2023-05-27 13:58:15,25.06533,121.53177,德惠街170巷22號對側,Zhongshan Dist,YouBike2.0_Xinxi Park,No. 22， Ln. 170， Dehuei St. (Opposite),10,1,2023-05-27 14:11:29,2023-05-27 14:11:51,2023-05-27 13:58:15,2023-05-27
581,500107054,YouBike2.0_吉林路407巷口,15,0,中山區,2023-05-27 14:07:04,25.06595,121.53041,吉林路401號前,Zhongshan Dist,YouBike2.0_Ln. 407， Jilin Rd. Intersection,No. 401， Jilin Rd,14,1,2023-05-27 14:11:29,2023-05-27 14:11:51,2023-05-27 14:07:04,2023-05-27
583,500107056,YouBike2.0_林安泰古厝,22,2,中山區,2023-05-27 14:10:20,25.07154,121.53058,濱江街5號對側,Zhongshan Dist,YouBike2.0_Lin An Tai Historical House,No. 5， Binjiang St. (Opposite),20,1,2023-05-27 14:11:29,2023-05-27 14:11:51,2023-05-27 14:10:20,2023-05-27
584,500107057,YouBike2.0_中山公民會館,20,0,中山區,2023-05-27 13:52:04,25.06185,121.5226,中山北路二段128巷口,Zhongshan Dist,YouBike2.0_zhongshan Public Assembly Hall,Ln. 128， Sec. 2， Jhongshan N. Rd.,18,1,2023-05-27 14:11:29,2023-05-27 14:11:51,2023-05-27 13:52:04,2023-05-27
585,500107058,YouBike2.0_渭水八德路口,23,1,中山區,2023-05-27 13:11:15,25.04573,121.53508,渭水路54號對側,Zhongshan Dist,YouBike2.0_Weishuei Rd. & Bade Rd. Intersection,No. 54， Weishuei Rd. (Opposite),20,1,2023-05-27 14:11:29,2023-05-27 14:11:51,2023-05-27 13:11:15,2023-05-27
587,500107060,YouBike2.0_撫順公園,20,2,中山區,2023-05-27 13:58:15,25.06416,121.52203,中山北路三段2號對側,Zhongshan Dist,YouBike2.0_Fushun Park,No. 2， Sec. 3， Jhongshan N. Rd. (Opposite),17,1,2023-05-27 14:11:29,2023-05-27 14:11:51,2023-05-27 13:58:15,2023-05-27
588,500107061,YouBike2.0_新生公園,16,0,中山區,2023-05-27 13:47:04,25.06839,121.53032,民族東路/吉林路口(西北側),Zhongshan Dist,YouBike2.0_Xinsheng Park,Minzu E. Rd & Jilin Rd. Intersection (Northwest),16,1,2023-05-27 14:11:29,2023-05-27 14:11:51,2023-05-27 13:47:04,2023-05-27
589,500107062,YouBike2.0_捷運行天宮站(1號出口),46,2,中山區,2023-05-27 14:10:20,25.05867,121.53305,松江路230號前,Zhongshan Dist,YouBike2.0_MRT Xingtian Temple Sta. (Exit 1),No. 230， Songjiang Rd.,43,1,2023-05-27 14:11:29,2023-05-27 14:11:51,2023-05-27 14:10:20,2023-05-27
591,500107064,YouBike2.0_建國農安街口,35,2,中山區,2023-05-27 13:47:14,25.06503,121.53678,建國北路/農安街口(建國橋下),Zhongshan Dist,YouBike2.0_Jianguo & Nong'an Intersection,Jianguo N. Rd. & Nong'an St. Intersection,31,1,2023-05-27 14:11:29,2023-05-27 14:11:51,2023-05-27 13:47:14,2023-05-27
592,500107065,YouBike2.0_松江路77巷口,10,1,中山區,2023-05-27 14:04:19,25.04985,121.53312,松江路77巷口,Zhongshan Dist,YouBike2.0_Ln. 77， Songjiang Rd.,Ln. 77， Songjiang Rd.,9,1,2023-05-27 14:11:29,2023-05-27 14:11:51,2023-05-27 14:04:19,2023-05-27
594,500107067,YouBike2.0_市民新生路口,15,3,中山區,2023-05-27 14:03:15,25.04611,121.53193,新生北路一段36號前,Zhongshan Dist,YouBike2.0_Civic & Xinsheng Intersection,No. 36， Sec. 1， Xinsheng N. Rd.,12,1,2023-05-27 14:11:29,2023-05-27 14:11:51,2023-05-27 14:03:15,2023-05-27
595,500107068,YouBike2.0_民權吉林路口,15,1,中山區,2023-05-27 14:01:43,25.06269,121.53061,民權東路二段51號前,Zhongshan Dist,YouBike2.0_Minquan & Jilin Intersection,No. 51， Sec. 2， Minquan E. Rd.,13,1,2023-05-27 14:11:29,2023-05-27 14:11:51,2023-05-27 14:01:43,2023-05-27
597,500107070,YouBike2.0_捷運行政大樓,14,3,中山區,2023-05-27 14:04:19,25.05575,121.52168,中山北路二段48巷7號前,Zhongshan Dist,YouBike2.0_MRT Administration Building,No. 7， Ln. 48， Sec. 2， Zhongshan N. Rd,11,1,2023-05-27 14:11:29,2023-05-27 14:11:51,2023-05-27 14:04:19,2023-05-27
598,500107071,YouBike2.0_中吉公園(松江路188巷),22,2,中山區,2023-05-27 13:48:15,25.0568,121.53191,松江路188巷11號對側,Zhongshan Dist,YouBike2.0_Zhongji Park(Ln. 188， Songjiang Rd.),No. 11， Ln. 188， Songjiang Rd. (Opposite),20,1,2023-05-27 14:11:29,2023-05-27 14:11:51,2023-05-27 13:48:15,2023-05-27
599,500107072,YouBike2.0_吉林路123巷口,13,3,中山區,2023-05-27 13:22:15,25.05731,121.53021,吉林路125號前,Zhongshan Dist,YouBike2.0_Ln. 123， Jilin Rd.,No. 125， Jilin Rd.,10,1,2023-05-27 14:11:29,2023-05-27 14:11:51,2023-05-27 13:22:15,2023-05-27
605,500107079,YouBike2.0_新生錦州街口,20,1,中山區,2023-05-27 14:03:15,25.05955,121.52744,新生北路二段100號前,Zhongshan Dist,YouBike2.0_Xinsheng Rd. & Jinzhou St. Intersection,No. 100， Sec. 2， Xinsheng N. Rd.,19,1,2023-05-27 14:11:29,2023-05-27 14:11:51,2023-05-27 14:03:15,2023-05-27
606,500107080,YouBike2.0_濱江街199巷口,15,3,中山區,2023-05-27 13:48:15,25.0734,121.53985,濱江街199巷(八號疏散門前),Zhongshan Dist,YouBike2.0_Ln. 199， Binjiang St.,Ln. 199， Binjiang St.,12,1,2023-05-27 14:11:29,2023-05-27 14:11:51,2023-05-27 13:48:15,2023-05-27
607,500107081,YouBike2.0_大佳社區公園,15,1,中山區,2023-05-27 14:06:04,25.07275,121.5373,濱江街154巷對側,Zhongshan Dist,YouBike2.0_Dajia Community Park,Ln. 154， Binjiang St. (Opposite),14,1,2023-05-27 14:11:29,2023-05-27 14:11:51,2023-05-27 14:06:04,2023-05-27
609,500107083,YouBike2.0_興安合江路口,19,1,中山區,2023-05-27 13:55:23,25.05619,121.53949,興安街60號對側,Zhongshan Dist,YouBike2.0_Xing'an St. & Hejiang St. Intersection,No. 60， Xing'an St. (Opposite),18,1,2023-05-27 14:11:29,2023-05-27 14:11:51,2023-05-27 13:55:23,2023-05-27
610,500107084,YouBike2.0_復興北路514巷口東側,10,1,中山區,2023-05-27 14:10:09,25.06597,121.54117,復興北路514巷66號前側,Zhongshan Dist,YouBike2.0_Fuxing Rd. & Longjiang Rd. Intersection,No. 66， Ln. 514， Fuxing N. Rd.,8,1,2023-05-27 14:11:29,2023-05-27 14:11:51,2023-05-27 14:10:09,2023-05-27
611,500107085,YouBike2.0_台泥大樓,18,0,中山區,2023-05-27 14:01:04,25.06142,121.52305,中山北路二段113-133號前,Zhongshan Dist,YouBike2.0_TCC Building,No. 113-133， Sec. 2， Zhongshan N. Rd.,16,1,2023-05-27 14:11:29,2023-05-27 14:11:51,2023-05-27 14:01:04,2023-05-27
618,500107092,YouBike2.0_捷運大直站(1號出口),27,3,中山區,2023-05-27 14:05:16,25.0801,121.54708,北安路535之2號旁,Zhongshan Dist,YouBike2.0_MRT Dazhi Sta. (Exit 1),No. 535-2， Bei'an Rd.,23,1,2023-05-27 14:11:29,2023-05-27 14:11:51,2023-05-27 14:05:16,2023-05-27
619,500107093,YouBike2.0_捷運松江南京站(4號出口),32,2,中山區,2023-05-27 14:09:14,25.0512,121.53312,松江路95-1至109號前方,Zhongshan Dist,YouBike2.0_MRT Songjiang Nanjing Sta. (Exit 4),No.109， Songjiang Rd.,30,1,2023-05-27 14:11:29,2023-05-27 14:11:51,2023-05-27 14:09:14,2023-05-27
620,500107095,YouBike2.0_中429公園,15,1,中山區,2023-05-27 13:53:04,25.07864,121.55557,敬業三路177巷南側,Zhongshan Dist,YouBike2.0_hong 429 Park,Ln. 177， Jingye 3rd Rd. (South),14,1,2023-05-27 14:11:29,2023-05-27 14:11:51,2023-05-27 13:53:04,2023-05-27
621,500107096,YouBike2.0_長春路137巷口,16,3,中山區,2023-05-27 14:05:16,25.05791,121.53114,民生東路二段134號前,Zhongshan Dist,YouBike2.0_Ln. 137， Changchun Rd.,No. 134， Sec. 2， Minquan E. Rd.,13,1,2023-05-27 14:11:29,2023-05-27 14:11:51,2023-05-27 14:05:16,2023-05-27
622,500107097,YouBike2.0_松江民生路口,17,3,中山區,2023-05-27 14:07:14,25.05765,121.53299,松江路208號前,Zhongshan Dist,YouBike2.0_Songjiang Rd. & Minsheng Rd. Intersection,No. 208， Songjiang Rd.,13,1,2023-05-27 14:11:29,2023-05-27 14:11:51,2023-05-27 14:07:14,2023-05-27
624,500107099,YouBike2.0_長春吉林路口,10,2,中山區,2023-05-27 14:07:14,25.05481,121.53032,長春路120號前,Zhongshan Dist,YouBike2.0_Changchun Rd. & Jilin Rd. Intersection,No. 120， Changchun Rd.,8,1,2023-05-27 14:11:29,2023-05-27 14:11:51,2023-05-27 14:07:14,2023-05-27
625,500107100,YouBike2.0_長春一江街口,11,0,中山區,2023-05-27 13:59:05,25.05488,121.53142,長春路135號前,Zhongshan Dist,YouBike2.0_Changchun Rd. & Yijiang St. Intersection,No. 135， Changchun Rd.,11,1,2023-05-27 14:11:29,2023-05-27 14:11:51,2023-05-27 13:59:05,2023-05-27
627,500107102,YouBike2.0_南京一江街口,10,1,中山區,2023-05-27 13:59:15,25.05215,121.53171,南京東路二段85號前,Zhongshan Dist,YouBike2.0_Nanjing Rd. & Yijiang St. Intersection,No. 85， Sec. 2， Nanjing E. Rd.,9,1,2023-05-27 14:11:29,2023-05-27 14:11:51,2023-05-27 13:59:15,2023-05-27
628,500107103,YouBike2.0_松江長春路口,16,1,中山區,2023-05-27 14:04:19,25.05499,121.53295,松江路158號前,Zhongshan Dist,YouBike2.0_Songjiang Rd. & Changchun Rd. Intersection,No. 158， Songjiang Rd.,15,1,2023-05-27 14:11:29,2023-05-27 14:11:51,2023-05-27 14:04:19,2023-05-27
631,500107106,YouBike2.0_新生農安街口,15,1,中山區,2023-05-27 14:10:20,25.06493,121.52778,新生北路三段與農安街口(高架橋下),Zhongshan Dist,YouBike2.0_Xinsheng Rd. & Nong'an St. Intersection,Sec. 3， Xinsheng N. Rd. & Nong'an St. Intersection,14,1,2023-05-27 14:11:29,2023-05-27 14:11:51,2023-05-27 14:10:20,2023-05-27
632,500107107,YouBike2.0_稻江高級護理家事職業學校,14,3,中山區,2023-05-27 14:10:20,25.06532,121.52848,農安街77巷與農安街77巷1弄口,Zhongshan Dist,YouBike2.0_Daojiang Senior High School of Nursing and Home Economics,Ln. 77， Nong'an St. & Aly. 1， Ln. 77， Nong'an St. Intersection,10,1,2023-05-27 14:11:29,2023-05-27 14:11:51,2023-05-27 14:10:20,2023-05-27
633,500107108,YouBike2.0_捷運大直站(3號出口)_1,18,0,中山區,2023-05-27 13:53:04,25.07934,121.54671,北安路458巷41弄52之1號前,Zhongshan Dist,YouBike2.0_MRT Dazhi Sta.(Exit 3)_1,No. 52-1， Aly. 41， Ln. 458， Bei'an Rd.,18,1,2023-05-27 14:11:29,2023-05-27 14:11:51,2023-05-27 13:53:04,2023-05-27
635,500107110,YouBike2.0_民權吉林路口(南側),16,3,中山區,2023-05-27 14:05:16,25.06245,121.53014,民權東路二段46號前,Zhongshan Dist,YouBike2.0_Minquan Rd. & Jilin Rd. Intersection,No. 46， Sec. 2， Minquan E. Rd.,13,1,2023-05-27 14:11:29,2023-05-27 14:11:51,2023-05-27 14:05:16,2023-05-27
637,500107112,YouBike2.0_民權新生路口,26,2,中山區,2023-05-27 14:07:14,25.06305,121.52776,民權東路一段/新生北路三段(北側)(新生高架橋下),Zhongshan Dist,YouBike2.0_Minquan Rd. & Xinsheng Rd. Intersection,Sec. 1， Minquan E. Rd. & Sec. 3， Xinsheng N. Rd. Intersection (North),24,1,2023-05-27 14:11:29,2023-05-27 14:11:51,2023-05-27 14:07:14,2023-05-27
638,500107113,YouBike2.0_建國長春路口(北側),20,3,中山區,2023-05-27 14:11:14,25.05476,121.53693,建國北路/長春路口(北側),Zhongshan Dist,YouBike2.0_Jianguo Rd. & Changchun Rd. Intersection,Jianguo N. Rd. & Changchun Rd. Intersection (North),15,1,2023-05-27 14:11:29,2023-05-27 14:11:51,2023-05-27 14:11:14,2023-05-27
639,500107114,YouBike2.0_中山行政中心,24,3,中山區,2023-05-27 14:08:15,25.06432,121.53349,松江路/農安街口,Zhongshan Dist,YouBike2.0_Zhongshan District Household Registration Office,Songjiang Rd. & Nong'an St. Intersection,19,1,2023-05-27 14:11:29,2023-05-27 14:11:51,2023-05-27 14:08:15,2023-05-27
642,500107117,YouBike2.0_濱江國小游泳池,16,1,中山區,2023-05-27 13:54:15,25.07818,121.56175,樂群二路266巷99號前,Zhongshan Dist,YouBike2.0_Binjiang Elementary School Swimming Pool,No. 99， Ln. 266， Lequn 2nd Rd.,15,1,2023-05-27 14:11:29,2023-05-27 14:11:51,2023-05-27 13:54:15,2023-05-27
644,500107119,YouBike2.0_中428公園,15,1,中山區,2023-05-27 13:34:14,25.07825,121.55337,樂群二路30巷/樂群二路116巷61弄,Zhongshan Dist,YouBike2.0_Zhong 428 Park,Ln. 30， Lequn 2nd Rd. & Aly. 61， Ln. 116， Lequn 2nd Rd. Intersection,14,1,2023-05-27 14:11:29,2023-05-27 14:11:51,2023-05-27 13:34:14,2023-05-27
645,500107120,YouBike2.0_復華公園,20,0,中山區,2023-05-27 13:57:04,25.05339,121.5401,南京東路三段109巷/龍江路120巷,Zhongshan Dist,YouBike2.0_Fuhua Park,Ln. 109， Sec. 3， Nanjing E. Rd. & Ln. 120， Longjiang Rd. Intersection,20,1,2023-05-27 14:11:29,2023-05-27 14:11:51,2023-05-27 13:57:04,2023-05-27
652,500107127,YouBike2.0_民權建國路口(南側),15,0,中山區,2023-05-27 13:40:10,25.06228,121.53702,民權東路三段/建國北路二段(南側高架橋下),Zhongshan Dist,YouBike2.0_Minquan Rd. & Jianguo Rd. Intersection (South),Sec. 3， Minquan E. Rd. & Sec. 2， Jianguo N. Rd. (Under Elevated Bridge),14,1,2023-05-27 14:11:29,2023-05-27 14:11:51,2023-05-27 13:40:10,2023-05-27
653,500107128,YouBike2.0_林森德惠街口,16,1,中山區,2023-05-27 14:10:20,25.06688,121.5257,德惠街11號東側,Zhongshan Dist,YouBike2.0_Linsen Rd. & Dehui St. Intersection,No. 11， Dehui St. (East),14,1,2023-05-27 14:11:29,2023-05-27 14:11:51,2023-05-27 14:10:20,2023-05-27
654,500107129,YouBike2.0_新生濱江街口(東南側),21,2,中山區,2023-05-27 13:43:14,25.07059,121.52812,新生北路三段/濱江街口(東南側),Zhongshan Dist,YouBike2.0_Xinsheng Rd. & Binjiang St. Intersection (Southeast),Sec. 3， Xinsheng N. Rd. & Binjiang St. Intersection (Southeast),19,1,2023-05-27 14:11:29,2023-05-27 14:11:51,2023-05-27 13:43:14,2023-05-27
655,500107130,YouBike2.0_新生北路一段62巷口,20,1,中山區,2023-05-27 13:15:15,25.04699,121.53075,新生北路一段64號對側,Zhongshan Dist,YouBike2.0_Ln. 62， Sec. 1， Xinsheng N. Rd.,No. 64， Sec. 1， Xinsheng N. Rd. (Opposite),19,1,2023-05-27 14:11:29,2023-05-27 14:11:51,2023-05-27 13:15:15,2023-05-27
656,500107131,YouBike2.0_新生長春路口(東北側),19,0,中山區,2023-05-27 13:13:04,25.05532,121.52769,新生北路二段39-2號對側,Zhongshan Dist,YouBike2.0_Xinsheng Rd. & Changchun Rd. Intersection (Northeast),No. 39-2， Sec. 2， Xinsheng N. Rd. (Opposite),18,1,2023-05-27 14:11:29,2023-05-27 14:11:51,2023-05-27 13:13:04,2023-05-27
658,500107133,YouBike2.0_敬業三樂群三路口(西北側),16,3,中山區,2023-05-27 14:08:15,25.08272,121.55624,敬業三路/樂群三路口,Zhongshan Dist,YouBike2.0_Jingye 3rd Rd. & Lequn 3rd Rd. Intersection (Northwest),Jingye 3rd Rd. & Lequn 3rd Rd. Intersection,13,1,2023-05-27 14:11:29,2023-05-27 14:11:51,2023-05-27 14:08:15,2023-05-27
659,500107134,YouBike2.0_長春路258巷2弄口,15,2,中山區,2023-05-27 13:58:15,25.05427,121.53896,長春路258巷6號北側,Zhongshan Dist,YouBike2.0_Aly. 2， Ln. 258， Changchun Rd.,No. 6， Ln. 258， Changchun Rd. (North),13,1,2023-05-27 14:11:29,2023-05-27 14:11:51,2023-05-27 13:58:15,2023-05-27
661,500107136,YouBike2.0_建國五常街口,20,0,中山區,2023-05-27 14:06:04,25.06419,121.53732,建國北路三段/五常街,Zhongshan Dist,YouBike2.0_Jianguo Rd. & Wuchang St. Intersection,Sec. 3， Jianguo N. Rd. & Wuchang St. Intersection,20,1,2023-05-27 14:11:29,2023-05-27 14:11:51,2023-05-27 14:06:04,2023-05-27
662,500107137,YouBike2.0_中山北路二段62巷口,12,3,中山區,2023-05-27 14:04:19,25.05676,121.52268,中山北路二段66號前,Zhongshan Dist,YouBike2.0_Ln. 62， Sec. 2， Zhongshan N. Rd.,No. 66， Sec. 2， Zhongshan N. Rd.,9,1,2023-05-27 14:11:29,2023-05-27 14:11:51,2023-05-27 14:04:19,2023-05-27
663,500107138,YouBike2.0_市民安東街口,20,1,中山區,2023-05-27 13:17:32,25.0448,121.54213,市民大道三段179號前,Zhongshan Dist,YouBike2.0_Civic Blvd. & Andong St. Intersection,No. 179， Sec. 3， Civic Blvd.,19,1,2023-05-27 14:11:29,2023-05-27 14:11:51,2023-05-27 13:17:32,2023-05-27
664,500107139,YouBike2.0_市民大道二段5巷口,15,3,中山區,2023-05-27 13:59:15,25.04812,121.52166,市民大道二段/市民大道二段5巷,Zhongshan Dist,YouBike2.0_Ln. 5， Sec. 2， Civic Blvd.,Sec. 2， Civic Blvd. & Ln. 5， Sec. 2， Civic Blvd. Intersection,12,1,2023-05-27 14:11:29,2023-05-27 14:11:51,2023-05-27 13:59:15,2023-05-27
669,500108005,YouBike2.0_文湖國小,31,2,內湖區,2023-05-27 14:10:20,25.08637,121.56088,文湖街21巷口北側,Neihu Dist,YouBike2.0_Wenhu Elementary School,Ln. 21， Wunhu St.,29,1,2023-05-27 14:11:29,2023-05-27 14:11:51,2023-05-27 14:10:20,2023-05-27
670,500108006,YouBike2.0_文湖街81巷10號西側,14,2,內湖區,2023-05-27 14:11:15,25.08707,121.56406,文湖街81巷10號西側,Neihu Dist,YouBike2.0_No. 10， Ln. 81， Wenhu St,No. 10， Ln. 81， Wenhu St.(West),10,1,2023-05-27 14:11:29,2023-05-27 14:11:51,2023-05-27 14:11:15,2023-05-27
674,500108010,YouBike2.0_港華五號公園,16,0,內湖區,2023-05-27 12:40:10,25.08522,121.57462,環山路二段81號西北側,Neihu Dist,YouBike2.0_Ganghua 2nd Park,No. 81， Sec. 2， Huanshan Rd.(Northwest),16,1,2023-05-27 14:11:29,2023-05-27 14:11:51,2023-05-27 12:40:10,2023-05-27
675,500108011,YouBike2.0_大湖國小,25,0,內湖區,2023-05-27 14:04:06,25.08803,121.59958,大湖山莊街/大湖山莊街176巷(東南側),Neihu Dist,YouBike2.0_Dahu Elementary School,Dahu Shanzhuang St & Ln. 176， Dahu Shanzhuang St. (Southeast),23,1,2023-05-27 14:11:29,2023-05-27 14:11:51,2023-05-27 14:04:06,2023-05-27
677,500108013,YouBike2.0_東湖路113巷95弄,10,0,內湖區,2023-05-27 10:23:04,25.07177,121.61491,東湖路113巷95弄13號西側,Neihu Dist,YouBike2.0_Aly. 95， Ln. 113， Donghu Rd,No. 13， Aly. 95， Ln. 113， Donghu Rd. (West),9,1,2023-05-27 14:11:29,2023-05-27 14:11:51,2023-05-27 10:23:04,2023-05-27
679,500108015,YouBike2.0_文德三號公園(江南街71巷16弄),15,2,內湖區,2023-05-27 14:11:04,25.07524,121.5772,瑞光路271號東南側,Neihu Dist,YouBike2.0_Wende No. 3 Park,No. 271， Ruiguang Rd. (Southeast),13,1,2023-05-27 14:11:29,2023-05-27 14:11:51,2023-05-27 14:11:04,2023-05-27
681,500108018,YouBike2.0_康寧星雲街口,12,3,內湖區,2023-05-27 14:08:15,25.07958,121.59336,康寧路一段116號,Neihu Dist,YouBike2.0_Kangning Rd & Xingyun St Intersection,No. 116， Sec. 1， Kangning Rd.,9,1,2023-05-27 14:11:29,2023-05-27 14:11:51,2023-05-27 14:08:15,2023-05-27
682,500108019,YouBike2.0_星雲街47號,15,1,內湖區,2023-05-27 14:10:20,25.07864,121.59177,星雲街47號南側,Neihu Dist,YouBike2.0_No. 47， Xingyun St,No. 47， Xingyun St. (South),14,1,2023-05-27 14:11:29,2023-05-27 14:11:51,2023-05-27 14:10:20,2023-05-27
684,500108021,YouBike2.0_捷運西湖站(2號出口),12,3,內湖區,2023-05-27 14:11:15,25.08205,121.56716,內湖路一段291號(對面),Neihu Dist,YouBike2.0_MRT Xihu Sta. (Exit 2),No. 291， Sec. 1， Neihu Rd. (Opposite),9,1,2023-05-27 14:11:29,2023-05-27 14:11:51,2023-05-27 14:11:15,2023-05-27
693,500108030,YouBike2.0_文德二號公園(南側),13,1,內湖區,2023-05-27 13:56:04,25.07504,121.58375,陽光街與陽光街68巷102弄口,Neihu Dist,YouBike2.0_Wende No.2 Park (South),Aly. 102， Ln. 68， Yangguang St & Yangguang St Intersection,12,1,2023-05-27 14:11:29,2023-05-27 14:11:51,2023-05-27 13:56:04,2023-05-27
695,500108032,YouBike2.0_瑞陽公園,12,1,內湖區,2023-05-27 14:04:19,25.07777,121.57961,文德路22巷6號(對面),Neihu Dist,YouBike2.0_Ruiyang Park,No. 6， Ln. 22， Wende Rd. (Opposite),11,1,2023-05-27 14:11:29,2023-05-27 14:11:51,2023-05-27 14:04:19,2023-05-27
699,500108036,YouBike2.0_潭美國小(南京舊宗路口),16,1,內湖區,2023-05-27 13:58:04,25.05768,121.58159,行善路179號南側,Neihu Dist,YouBike2.0_Tanmei Elementary School (Nanjing Rd. & Jiuzong Rd. Intersection,No. 179， Xingshan Rd. (South),15,1,2023-05-27 14:11:29,2023-05-27 14:11:51,2023-05-27 13:58:04,2023-05-27
700,500108037,YouBike2.0_新明路343號,10,1,內湖區,2023-05-27 14:01:16,25.05653,121.58345,新明路341號北側,Neihu Dist,YouBike2.0_No. 343， Xinming Rd.,No. 343， Xinming Rd. (North),9,1,2023-05-27 14:11:29,2023-05-27 14:11:51,2023-05-27 14:01:16,2023-05-27
704,500108041,YouBike2.0_安康路32巷24弄,21,1,內湖區,2023-05-27 13:59:15,25.06181,121.59447,安康路32巷24弄22號,Neihu Dist,YouBike2.0_Aly. 24， Ln. 32， Ankang Rd.,No. 22， Aly. 24， Ln. 32， Ankang Rd.,20,1,2023-05-27 14:11:29,2023-05-27 14:11:51,2023-05-27 13:59:15,2023-05-27
709,500108047,YouBike2.0_瑞光公共住宅(瑞光路),18,0,內湖區,2023-05-27 12:23:04,25.07335,121.57951,瑞光路160號,Neihu Dist,YouBike2.0_Ruiguang Public Housing (Ruiguang Rd),No. 160， Ruiguang Rd.,18,1,2023-05-27 14:11:29,2023-05-27 14:11:51,2023-05-27 12:23:04,2023-05-27
710,500108048,YouBike2.0_民權東路六段15巷,17,1,內湖區,2023-05-27 01:11:15,25.06853,121.57813,民權東路六段15巷29號,Neihu Dist,YouBike2.0_Ln. 15， Sec. 6， Minquan E. Rd.,No. 29， Ln. 15， Sec. 6， Minquan E. Rd.,16,1,2023-05-27 14:11:29,2023-05-27 14:11:51,2023-05-27 01:11:15,2023-05-27
711,500108049,YouBike2.0_扶輪親恩公園,17,0,內湖區,2023-05-27 13:54:04,25.06709,121.58002,民權東路六段30號,Neihu Dist,YouBike2.0_Rotary Park,No. 30， Sec. 6， Minquan E. Rd.,16,1,2023-05-27 14:11:29,2023-05-27 14:11:51,2023-05-27 13:54:04,2023-05-27
716,500108055,YouBike2.0_福華商場,20,0,內湖區,2023-05-27 13:56:04,25.06877,121.59265,民權東路六段/民權東路六段180巷(西南側),Neihu Dist,YouBike2.0_Fuhua Market,Sec. 6， Minquan E. Rd. / Ln. 180， Sec. 6， Minquan E. Rd. (Southwest),20,1,2023-05-27 14:11:29,2023-05-27 14:11:51,2023-05-27 13:56:04,2023-05-27
720,500108059,YouBike2.0_金湖路347巷125弄口,15,0,內湖區,2023-05-27 13:41:04,25.0733,121.59834,金湖路347巷125弄1號(對面),Neihu Dist,YouBike2.0_Aly. 125， Ln. 347， Jinhu Rd. Intersection,No. 1， Aly. 125， Ln. 347， Jinhu Rd. (Opposite),15,1,2023-05-27 14:11:29,2023-05-27 14:11:51,2023-05-27 13:41:04,2023-05-27
723,500108062,YouBike2.0_貿七社區,17,1,內湖區,2023-05-27 13:56:16,25.08357,121.58534,內湖路二段179巷48弄17號(旁),Neihu Dist,YouBike2.0_Maoqi Community,No. 17， Aly. 48， Ln. 179， Sec. 2， Neihu Rd.,16,1,2023-05-27 14:11:29,2023-05-27 14:11:51,2023-05-27 13:56:16,2023-05-27
726,500108065,YouBike2.0_康寧金湖路口,14,0,內湖區,2023-05-27 12:48:04,25.07896,121.59921,康寧路一段273號(對面),Neihu Dist,YouBike2.0_Kangning Rd. & Jinhu Rd. Intersection,No. 273， Sec. 1， Kangning Rd. (Opposite),14,1,2023-05-27 14:11:29,2023-05-27 14:11:51,2023-05-27 12:48:04,2023-05-27
727,500108066,YouBike2.0_康寧路一段156巷20弄口,17,1,內湖區,2023-05-27 14:05:05,25.07792,121.59354,康寧路一段156巷/康寧路一段156巷20弄(西側),Neihu Dist,YouBike2.0_Aly. 20， Ln. 156， Sec. 1， Kangning Rd. Intersection,Ln. 156， Sec. 1， Kangning Rd. / Aly. 20， Ln. 156， Sec. 1， Kangning Rd. (West),16,1,2023-05-27 14:11:29,2023-05-27 14:11:51,2023-05-27 14:05:05,2023-05-27
730,500108069,YouBike2.0_內溝溪生態展示館,8,3,內湖區,2023-05-27 13:54:15,25.08722,121.62306,康樂街236-3號(前),Neihu Dist,YouBike2.0_Neigousi Ecological Exhibition Hall,No. 236-3， Kangle St.,5,1,2023-05-27 14:11:29,2023-05-27 14:11:51,2023-05-27 13:54:15,2023-05-27
731,500108070,YouBike2.0_捷運港墘站(2號出口),47,1,內湖區,2023-05-27 14:10:20,25.07967,121.57584,內湖路一段520號,Neihu Dist,YouBike2.0_MRT Gangqian Sta. (Exit 2),No. 520， Sec. 1， Neihu Rd.,44,1,2023-05-27 14:11:29,2023-05-27 14:11:51,2023-05-27 14:10:20,2023-05-27
739,500108078,YouBike2.0_下灣公園,16,3,內湖區,2023-05-27 14:10:20,25.06516,121.59561,民權東路六段206巷/民權東路六段190巷75弄(西北側),Neihu Dist,YouBike2.0_Xiawan Park,Ln. 206， Sec. 6， Minquan E. Rd. & Aly. 75， Ln. 190， Sec. 6， Minquan E. Rd. (Northwest),13,1,2023-05-27 14:11:29,2023-05-27 14:11:51,2023-05-27 14:10:20,2023-05-27
745,500108085,YouBike2.0_金龍公園,15,2,內湖區,2023-05-27 14:01:16,25.08554,121.59076,金龍路112巷口(金龍公園側),Neihu Dist,YouBike2.0_Jinlong Park,Ln. 112， Jinlong Rd.,13,1,2023-05-27 14:11:29,2023-05-27 14:11:51,2023-05-27 14:01:16,2023-05-27
746,500108086,YouBike2.0_星雲街138巷1弄口,15,3,內湖區,2023-05-27 13:14:18,25.07943,121.59544,星雲街138巷18號,Neihu Dist,YouBike2.0_Aly. 1， Ln. 138， Xingyun St.,No. 12， Ln. 138， Xingyun St.,11,1,2023-05-27 14:11:29,2023-05-27 14:11:51,2023-05-27 13:14:18,2023-05-27
747,500108087,YouBike2.0_東湖一號公園,10,0,內湖區,2023-05-27 12:50:08,25.07567,121.6118,康寧路三段189巷163弄13號東南側,Neihu Dist,YouBike2.0_Donghu No. 1 Park,No. 13， Aly. 163， Ln. 189， Sec. 3， Kangning Rd. (Southeast),10,1,2023-05-27 14:11:29,2023-05-27 14:11:51,2023-05-27 12:50:08,2023-05-27
748,500108088,YouBike2.0_東湖二號公園,15,0,內湖區,2023-05-27 13:55:11,25.07415,121.61075,康寧路三段99巷39弄70號東南側,Neihu Dist,YouBike2.0_Donghu No. 2 Park,No. 70， Aly. 39， Ln. 99， Sec. 3， Kangning Rd. (Southeast),14,1,2023-05-27 14:11:29,2023-05-27 14:11:51,2023-05-27 13:55:11,2023-05-27
749,500108089,YouBike2.0_康湖二號公園(康寧醫院),16,3,內湖區,2023-05-27 14:05:16,25.07514,121.60857,成功路五段420巷17號東側,Neihu Dist,YouBike2.0_Kanghu No. 2 Park(Kang-Ning General Hospital),No. 17， Ln. 420， Sec. 5， Chenggong Rd. (East),11,1,2023-05-27 14:11:29,2023-05-27 14:11:51,2023-05-27 14:05:16,2023-05-27
750,500108090,YouBike2.0_堤頂大道新湖一路口,13,0,內湖區,2023-05-27 12:07:04,25.05892,121.57354,堤頂大道一段215號前,Neihu Dist,YouBike2.0_Tiding Blvd. & Xinhu 1st Rd. Intersection,No. 215， Sec. 1， Tiding Blvd.,12,1,2023-05-27 14:11:29,2023-05-27 14:11:51,2023-05-27 12:07:04,2023-05-27
752,500108092,YouBike2.0_舊宗行善路口,9,3,內湖區,2023-05-27 14:04:19,25.05876,121.58062,行善路179號西側,Neihu Dist,YouBike2.0_Jiuzong Rd. & Xingshan Rd. Intersection,No. 179， Xingshan Rd.,6,1,2023-05-27 14:11:29,2023-05-27 14:11:51,2023-05-27 14:04:19,2023-05-27
755,500108095,YouBike2.0_金湖星雲街口,30,0,內湖區,2023-05-27 13:17:22,25.08151,121.59764,金湖路83號對側,Neihu Dist,YouBike2.0_Jinhu Rd. & Xingyun St. Intersection,No. 83， Jinhu Rd. (Opposite),30,1,2023-05-27 14:11:29,2023-05-27 14:11:51,2023-05-27 13:17:22,2023-05-27
756,500108096,YouBike2.0_國防醫學院,15,1,內湖區,2023-05-27 14:09:14,25.06851,121.59559,民權東路六段161號前側,Neihu Dist,YouBike2.0_National Defense Medical Center,No. 161， Sec. 6， Minquan E. Rd.,14,1,2023-05-27 14:11:29,2023-05-27 14:11:51,2023-05-27 14:09:14,2023-05-27
757,500108097,YouBike2.0_民權東路六段190巷117弄口,15,3,內湖區,2023-05-27 13:47:14,25.06434,121.59399,民權東路六段190巷117弄15號對側,Neihu Dist,YouBike2.0_Aly. 117， Ln. 190， Sec. 6， Minquan E. Rd.,No. 15， Aly. 117， Ln. 190， Sec. 6， Minquan E. Rd.,12,1,2023-05-27 14:11:29,2023-05-27 14:11:51,2023-05-27 13:47:14,2023-05-27
759,500108099,YouBike2.0_九華公園,16,3,內湖區,2023-05-27 14:01:16,25.08844,121.56122,文湖街21巷68弄25-6號北側,Neihu Dist,YouBike2.0_Jiuhua Park,No. 25-6， Aly. 68， Ln. 21， Wenhu St. (North),13,1,2023-05-27 14:11:29,2023-05-27 14:11:51,2023-05-27 14:01:16,2023-05-27
761,500108102,YouBike2.0_行善行愛路口,12,0,內湖區,2023-05-27 11:35:05,25.0606,121.58286,行善路243號(前),Neihu Dist,YouBike2.0_Xingshan Rd. & Xing'ai Rd. Intersection,No. 243， Xingshan Rd.,12,1,2023-05-27 14:11:29,2023-05-27 14:11:51,2023-05-27 11:35:05,2023-05-27
765,500108106,YouBike2.0_潭美公園(南京東路六段368巷),18,3,內湖區,2023-05-27 13:24:14,25.05928,121.58617,南京東路六段366號對側,Neihu Dist,YouBike2.0_Tanmei Park (Ln. 368， Sec. 6， Nanjing E. Rd.),No. 366， Sec. 6， Nanjing E. Rd. (Opposite),14,1,2023-05-27 14:11:29,2023-05-27 14:11:51,2023-05-27 13:24:14,2023-05-27
768,500108109,YouBike2.0_瑞光路76巷口,12,1,內湖區,2023-05-27 08:01:04,25.07168,121.58125,瑞光路102號前,Neihu Dist,YouBike2.0_Ln. 76， Ruiguang Rd.,No. 102， Ruiguang Rd.,11,1,2023-05-27 14:11:29,2023-05-27 14:11:51,2023-05-27 08:01:04,2023-05-27
770,500108111,YouBike2.0_新湖國小,12,2,內湖區,2023-05-27 11:43:15,25.06874,121.58923,民權東路六段/成功路二段320巷31弄(東南側),Neihu Dist,YouBike2.0_XinHu Elementary School,Sec. 6， Minquan E. Rd. & Aly. 31， Ln. 320， Sec. 2， Chenggong Rd. Intersection (Southeast),10,1,2023-05-27 14:11:29,2023-05-27 14:11:51,2023-05-27 11:43:15,2023-05-27
771,500108112,YouBike2.0_碧山內湖路口,16,0,內湖區,2023-05-27 14:08:04,25.08627,121.5914,內湖路三段72巷15號西側,Neihu Dist,YouBike2.0_Bishan Rd. & Neihu Rd. Intersection,No. 15， Ln. 72， Sec. 3， Neihu Rd. (West),16,1,2023-05-27 14:11:29,2023-05-27 14:11:51,2023-05-27 14:08:04,2023-05-27
772,500108115,YouBike2.0_民權東路六段413巷,16,1,內湖區,2023-05-27 10:48:04,25.07038,121.60352,民權東路六段409號前,Neihu Dist,YouBike2.0_Ln. 413， Sec. 6， Minquan E. Rd.,No. 409， Sec. 6， Minquan E. Rd.,15,1,2023-05-27 14:11:29,2023-05-27 14:11:51,2023-05-27 10:48:04,2023-05-27
773,500108116,YouBike2.0_宏匯瑞光廣場(瑞光路),16,2,內湖區,2023-05-27 13:19:14,25.07676,121.57433,瑞光路353號前(瑞光路側人行道),Neihu Dist,YouBike2.0_Honhui Ruiguang Plaza (Ruiguang Rd.),No. 353， Ruiguang Rd. (Ruiguang Rd.),14,1,2023-05-27 14:11:29,2023-05-27 14:11:51,2023-05-27 13:19:14,2023-05-27
776,500108119,YouBike2.0_內湖路一段360巷,15,0,內湖區,2023-05-27 14:05:05,25.0812,121.57067,內湖路一段358號,Neihu Dist,YouBike2.0_Ln. 360， Sec. 1， Neihu Rd.,No. 358， Sec. 1， Neihu Rd.,15,1,2023-05-27 14:11:29,2023-05-27 14:11:51,2023-05-27 14:05:05,2023-05-27
777,500108120,YouBike2.0_成功路三段83號前,11,0,內湖區,2023-05-27 13:59:05,25.07823,121.5898,成功路三段83號前,Neihu Dist,YouBike2.0_No. 83， Sec. 3， Chenggong Rd.,No. 83， Sec. 3， Chenggong Rd.,11,1,2023-05-27 14:11:29,2023-05-27 14:11:51,2023-05-27 13:59:05,2023-05-27
778,500108121,YouBike2.0_內湖路一段47巷,16,0,內湖區,2023-05-27 11:23:04,25.08781,121.55872,內湖路一段47巷/內湖路一段47巷22弄,Neihu Dist,YouBike2.0_Ln. 47， Sec. 1， Neihu Rd.,Ln. 47， Sec. 1， Neihu Rd. & Aly. 22， Ln. 47， Sec. 1， Neihu Rd. Intersection,16,1,2023-05-27 14:11:29,2023-05-27 14:11:51,2023-05-27 11:23:04,2023-05-27
780,500108123,YouBike2.0_安湖公園,8,0,內湖區,2023-05-27 09:32:04,25.07392,121.61545,東湖路113巷95弄/康寧路三段75巷,Neihu Dist,YouBike2.0_Anhu Park,Aly. 95， Ln. 113， Donghu Rd. & Ln. 75， Sec. 3， Kangning Rd. Intersection,8,1,2023-05-27 14:11:29,2023-05-27 14:11:51,2023-05-27 09:32:04,2023-05-27
782,500108126,YouBike2.0_安泰街(康樂橋下),15,3,內湖區,2023-05-27 12:10:19,25.07849,121.61666,安泰街(康樂橋下),Neihu Dist,YouBike2.0_Antai St.(Kangle Bridge),Antai St.(Kangle Bridge),12,1,2023-05-27 14:11:29,2023-05-27 14:11:51,2023-05-27 12:10:19,2023-05-27
783,500108127,YouBike2.0_康樂綠地,15,3,內湖區,2023-05-27 14:08:15,25.07539,121.6203,康樂街191巷/康樂街,Neihu Dist,YouBike2.0_Kangle Greens,Ln. 191， Kangle St. &  Kangle St. Intersection,12,1,2023-05-27 14:11:29,2023-05-27 14:11:51,2023-05-27 14:08:15,2023-05-27
785,500108129,YouBike2.0_明美公園(行善路333巷),16,0,內湖區,2023-05-27 13:53:04,25.06058,121.5866,行善路333巷92號前,Neihu Dist,YouBike2.0_Mingmei Park (Ln. 333， Xingshan Rd.),No. 92， Ln. 333， Xingshan Rd.,16,1,2023-05-27 14:11:29,2023-05-27 14:11:51,2023-05-27 13:53:04,2023-05-27
786,500108130,YouBike2.0_行善路383巷,17,2,內湖區,2023-05-27 13:35:14,25.06365,121.58609,行善路383巷27號對側,Neihu Dist,YouBike2.0_Ln. 383， Xingshan Rd.,No. 27， Ln. 383， Xingshan Rd. (Opposite),14,1,2023-05-27 14:11:29,2023-05-27 14:11:51,2023-05-27 13:35:14,2023-05-27
789,500108133,YouBike2.0_內湖路三段326巷口,15,2,內湖區,2023-05-27 13:52:04,25.08968,121.58352,內湖路三段326巷/內湖路三段,Neihu Dist,YouBike2.0_Ln. 326， Sec. 3， Neihu Rd.,Ln. 326， Sec. 3， Neihu Rd. & Sec. 3， Neihu Rd. Intersection,13,1,2023-05-27 14:11:29,2023-05-27 14:11:51,2023-05-27 13:52:04,2023-05-27
790,500108134,YouBike2.0_成功公園,11,3,內湖區,2023-05-27 13:26:19,25.08416,121.59665,成功路四段223巷/成功路四段223巷6弄,Neihu Dist,YouBike2.0_Chengong Park,Ln. 223， Sec. 4， Chenggong Rd. & Aly. 6， Ln. 223， Sec. 4， Chenggong Rd. Intersection,8,1,2023-05-27 14:11:29,2023-05-27 14:11:51,2023-05-27 13:26:19,2023-05-27
791,500108135,YouBike2.0_康寧路三段189巷93弄口,14,0,內湖區,2023-05-27 13:48:04,25.0735,121.61258,康寧路三段189巷/康寧路三段189巷93弄,Neihu Dist,YouBike2.0_Aly. 93， Ln. 189， Sec. 3， Kangning Rd.,Ln. 189， Sec. 3， Kangning Rd. & Aly. 93， Ln. 189， Sec. 3， Kangning Rd. Intersection,13,1,2023-05-27 14:11:29,2023-05-27 14:11:51,2023-05-27 13:48:04,2023-05-27
792,500108136,YouBike2.0_中國醫藥大學附設醫院臺北分院,13,3,內湖區,2023-05-27 14:10:20,25.08227,121.5909,內湖路二段368號對側,Neihu Dist,YouBike2.0_China Medical University Hospital (Taipei Branch),No. 368， Sec. 2， Neihu Rd. (Opposite),8,1,2023-05-27 14:11:29,2023-05-27 14:11:51,2023-05-27 14:10:20,2023-05-27
795,500108139,YouBike2.0_文德一號綠地,15,3,內湖區,2023-05-27 12:30:45,25.0786,121.58302,內湖區文德路91號旁,Neihu Dist,YouBike2.0_Wende Green No.1,No. 91， Wende Rd.,12,1,2023-05-27 14:11:29,2023-05-27 14:11:51,2023-05-27 12:30:45,2023-05-27
797,500108141,YouBike2.0_行善社會住宅,23,3,內湖區,2023-05-27 13:03:15,25.06126,121.58201,行愛路與新湖一路口西南側,Neihu Dist,YouBike2.0_Xingshan Social Housing,Xing'ai Rd. & Xinhu 1st Rd. Intersection (Southwest),20,1,2023-05-27 14:11:29,2023-05-27 14:11:51,2023-05-27 13:03:15,2023-05-27
798,500108142,YouBike2.0_康寧路三段99巷17弄口,15,1,內湖區,2023-05-27 14:08:04,25.0721,121.60991,康寧路三段99巷19號對側,Neihu Dist,YouBike2.0_Aly. 17， Ln. 99， Sec. 3， Kangning Rd.,No. 19， Ln. 99， Sec. 3， Kangning Rd. (Opposite),14,1,2023-05-27 14:11:29,2023-05-27 14:11:51,2023-05-27 14:08:04,2023-05-27
799,500108143,YouBike2.0_堤頂大道二段407巷口,15,1,內湖區,2023-05-27 13:37:04,25.08019,121.56316,堤頂大道二段405號前,Neihu Dist,YouBike2.0_Ln. 407， Sec. 2， Tiding Blvd.,No. 405， Sec. 2， Tiding Blvd.,14,1,2023-05-27 14:11:29,2023-05-27 14:11:51,2023-05-27 13:37:04,2023-05-27
800,500108144,YouBike2.0_海德堡科技大樓,12,2,內湖區,2023-05-27 10:03:15,25.08156,121.56227,堤頂大道二段473號前,Neihu Dist,YouBike2.0_Heidelberg Science & Technology Building,No. 473， Sec. 2， Tiding Blvd.,9,1,2023-05-27 14:11:29,2023-05-27 14:11:51,2023-05-27 10:03:15,2023-05-27
801,500108145,YouBike2.0_致伸科技大樓,17,1,內湖區,2023-05-27 12:38:14,25.08067,121.5656,瑞光路669號旁,Neihu Dist,YouBike2.0_Primax Headquarters Building,No. 669， Ruiguang Rd.,16,1,2023-05-27 14:11:29,2023-05-27 14:11:51,2023-05-27 12:38:14,2023-05-27
802,500108146,YouBike2.0_內湖路一段288巷口,20,1,內湖區,2023-05-27 11:22:15,25.08202,121.56861,內湖路一段290號前,Neihu Dist,YouBike2.0_Ln. 288， Sec. 1， Neihu Rd.,No. 290， Sec. 1， Neihu Rd.,19,1,2023-05-27 14:11:29,2023-05-27 14:11:51,2023-05-27 11:22:15,2023-05-27
803,500108147,YouBike2.0_大都會客運內湖站,15,0,內湖區,2023-05-27 10:25:05,25.06749,121.57784,民權東路六段11巷25號對側,Neihu Dist,YouBike2.0_Mtc Bus (Neihu),No. 25， Ln. 11， Sec. 6， Minquan E. Rd. (Opposite),15,1,2023-05-27 14:11:29,2023-05-27 14:11:51,2023-05-27 10:25:05,2023-05-27
804,500108148,YouBike2.0_瑞湖公園,15,1,內湖區,2023-05-27 10:44:04,25.06888,121.57711,民權東路六段15巷/民權東路六段19巷,Neihu Dist,YouBike2.0_Ruihu Park,Aly. 15， Sec. 6， Minquan E. Rd. & Aly. 19， Sec. 6， Minquan E. Rd. Intersection,14,1,2023-05-27 14:11:29,2023-05-27 14:11:51,2023-05-27 10:44:04,2023-05-27
805,500108150,YouBike2.0_台灣世曦大樓,16,0,內湖區,2023-05-27 13:57:04,25.07345,121.57848,陽光街323號,Neihu Dist,YouBike2.0_CECI Engineering Consultants， Inc.,No. 323， Yangguang St.,15,1,2023-05-27 14:11:29,2023-05-27 14:11:51,2023-05-27 13:57:04,2023-05-27
807,500108152,YouBike2.0_瑞光路358巷口,14,3,內湖區,2023-05-27 10:48:14,25.07733,121.5727,瑞光路/瑞光路358巷,Neihu Dist,YouBike2.0_Ln. 358， Ruiguang Rd.,Ruiguang Rd. & Ln. 358， Ruiguang Rd. Intersection,11,1,2023-05-27 14:11:29,2023-05-27 14:11:51,2023-05-27 10:48:14,2023-05-27
811,500108157,YouBike2.0_新湖三行忠路72巷口,15,1,內湖區,2023-05-27 07:39:04,25.06605,121.58206,新湖三路/行忠路72巷,Neihu Dist,YouBike2.0_Xinhu 3rd Rd. & Ln. 146， Xinhu 2nd Rd. Intersection,No. 122、124， Xinhu 3rd Rd. (Opposite),13,1,2023-05-27 14:11:29,2023-05-27 14:11:51,2023-05-27 07:39:04,2023-05-27
812,500108158,YouBike2.0_新湖三新湖二146巷口,15,0,內湖區,2023-05-27 13:25:05,25.06407,121.57787,新湖三路122、124號對側,Neihu Dist,YouBike2.0_Xinhu 3rd Rd. & Ln. 146， Xinhu 2nd Rd. Intersection,No. 122、124， Xinhu 3rd Rd. (Opposite),15,1,2023-05-27 14:11:29,2023-05-27 14:11:51,2023-05-27 13:25:05,2023-05-27
815,500108161,YouBike2.0_內湖路一段120巷15弄,19,3,內湖區,2023-05-27 06:54:14,25.08203,121.56298,內湖路一段120巷15弄8號對側,Neihu Dist,YouBike2.0_Aly. 15， Ln. 120， Sec. 1， Neihu Rd.,No. 8， Aly. 15， Ln. 120， Sec. 1， Neihu Rd. (Opposite),16,1,2023-05-27 14:11:29,2023-05-27 14:11:51,2023-05-27 06:54:14,2023-05-27
816,500108162,YouBike2.0_北勢湖環保公園(堤頂大道側),14,1,內湖區,2023-05-27 12:09:04,25.08318,121.56154,堤頂大道二段501號前,Neihu Dist,YouBike2.0_Beishihu Environmental Protection Park,No. 501， Sec. 2， Tiding Blvd.,13,1,2023-05-27 14:11:29,2023-05-27 14:11:51,2023-05-27 12:09:04,2023-05-27
817,500108164,YouBike2.0_達爾文大樓,15,3,內湖區,2023-05-27 14:08:15,25.07941,121.57277,洲子街61號,Neihu Dist,YouBike2.0_Darwin Building,No. 61， Zhouzi St.,12,1,2023-05-27 14:11:29,2023-05-27 14:11:51,2023-05-27 14:08:15,2023-05-27
829,500109012,YouBike2.0_捷運關渡站(2號出口),14,2,北投區,2023-05-27 13:46:16,25.12618,121.46737,捷運關渡站2號出口外人行道,Beitou Dist,YouBike2.0_MRT Guandu Sta. (Exit 2),Ln. 583， Sec. 4， Zhongyang N. Rd. Intersection,12,1,2023-05-27 14:11:29,2023-05-27 14:11:51,2023-05-27 13:46:16,2023-05-27
830,500109013,YouBike2.0_中央北路四段540巷口,19,2,北投區,2023-05-27 13:49:15,25.12796,121.46782,中央北路四段529號(對面),Beitou Dist,YouBike2.0_Ln. 540， Sec. 4， Zhongyang N. Rd. Intersection,No. 529， Sec. 4， Zhongyang N. Rd. (Opposite),17,1,2023-05-27 14:11:29,2023-05-27 14:11:51,2023-05-27 13:49:15,2023-05-27
834,500109017,YouBike2.0_豐年公園,20,0,北投區,2023-05-27 14:08:04,25.13475,121.49613,大業路529號(對面),Beitou Dist,YouBike2.0_Fengnian Park,No. 259， Daye Rd. (Opposite),20,1,2023-05-27 14:11:29,2023-05-27 14:11:51,2023-05-27 14:08:04,2023-05-27
836,500109019,YouBike2.0_國防大學政治作戰學院,30,2,北投區,2023-05-27 14:03:05,25.13776,121.49345,中央北路二段167號(對面),Beitou Dist,YouBike2.0_Fu Hsing Kang College,No. 167， Sec. 2， Zhongyang N. Rd. (Opposite),26,1,2023-05-27 14:11:29,2023-05-27 14:11:51,2023-05-27 14:03:05,2023-05-27
837,500109020,YouBike2.0_秀山區民活動中心,20,1,北投區,2023-05-27 12:01:56,25.14582,121.49303,秀山路50號(旁),Beitou Dist,YouBike2.0_Xiushan Community Center,No. 50， Xiushan Rd.,19,1,2023-05-27 14:11:29,2023-05-27 14:11:51,2023-05-27 12:01:56,2023-05-27
859,500109044,YouBike2.0_榮富公園,13,0,北投區,2023-05-27 14:03:05,25.1137,121.52437,榮華三路2號(旁),Beitou Dist,YouBike2.0_Rongfu Park,No. 2， Ronghua 3rd Rd.,13,1,2023-05-27 14:11:29,2023-05-27 14:11:51,2023-05-27 14:03:05,2023-05-27
862,500109047,YouBike2.0_中央北路四段30巷口,16,3,北投區,2023-05-27 14:04:19,25.13539,121.478,中央北路四段32號(旁),Beitou Dist,YouBike2.0_Ln.40， Sec.4， Zhongyang N. Rd.,No. 32， Sec.4， Zhongyang Rd. (Side),12,1,2023-05-27 14:11:29,2023-05-27 14:11:51,2023-05-27 14:04:19,2023-05-27
865,500109050,YouBike2.0_復興公園,14,0,北投區,2023-05-27 13:55:11,25.13872,121.5021,中和街61號對側,Beitou Dist,YouBike2.0_Fuxing Park,No. 61， Zhonghe St.,14,1,2023-05-27 14:11:29,2023-05-27 14:11:51,2023-05-27 13:55:11,2023-05-27
867,500109052,YouBike2.0_承德路七段188巷口,16,3,北投區,2023-05-27 14:03:15,25.11416,121.50771,承德路七段192-198號前,Beitou Dist,YouBike2.0_Ln. 188， Sec. 7， Chengde Rd. Intersection,No. 192-198， Sec. 7， Chengde Rd.,11,1,2023-05-27 14:11:29,2023-05-27 14:11:51,2023-05-27 14:03:15,2023-05-27
873,500109058,YouBike2.0_文化三杏林一路口,17,2,北投區,2023-05-27 13:59:15,25.14058,121.49915,杏林一路3號(旁),Beitou Dist,YouBike2.0_Wenhua 3rd Rd. & Xinglin 1st Rd. Intersection,No. 3， Xinglin 1st Rd.,15,1,2023-05-27 14:11:29,2023-05-27 14:11:51,2023-05-27 13:59:15,2023-05-27
874,500109059,YouBike2.0_珠海復興一路口,15,0,北投區,2023-05-27 13:17:22,25.14045,121.50446,珠海路/復興一路口(東側),Beitou Dist,YouBike2.0_Zhuhai Rd. & Fuxing 1st Rd. Intersection,Zhuhai Rd. & Fuxing 1st Rd. Intersection (East),15,1,2023-05-27 14:11:29,2023-05-27 14:11:51,2023-05-27 13:17:22,2023-05-27
875,500109060,YouBike2.0_裕民二路33巷,15,2,北投區,2023-05-27 13:50:20,25.11535,121.51736,裕民二路33巷/裕民六路(西北側),Beitou Dist,YouBike2.0_Ln. 33， Yumin 2nd Rd.,Ln. 33， Yumin 2nd Rd. & Yumin 6th Rd. Intersection (Northwest),13,1,2023-05-27 14:11:29,2023-05-27 14:11:51,2023-05-27 13:50:20,2023-05-27
876,500109061,YouBike2.0_新奇岩社會住宅,12,1,北投區,2023-05-27 14:01:43,25.12287,121.5037,磺港路269-271號(旁),Beitou Dist,YouBike2.0_Xinqiyan Social Housing,No. 269-271， Huanggang Rd.,11,1,2023-05-27 14:11:29,2023-05-27 14:11:51,2023-05-27 14:01:43,2023-05-27
881,500109066,YouBike2.0_福星公園,18,3,北投區,2023-05-27 11:03:15,25.1094,121.51248,文林北路280號(對側公園),Beitou Dist,YouBike2.0_Fuxing Park,No. 280， Wenlin N. Rd. (Opposite),14,1,2023-05-27 14:11:29,2023-05-27 14:11:51,2023-05-27 11:03:15,2023-05-27
883,500109068,YouBike2.0_豐年公園_1,18,3,北投區,2023-05-27 13:53:15,25.13597,121.49702,大業路539號,Beitou Dist,YouBike2.0_Fengnian Park_1,No. 259， Daye Rd. (Opposite),15,1,2023-05-27 14:11:29,2023-05-27 14:11:51,2023-05-27 13:53:15,2023-05-27
